Partner ID,Field Partner Name,sector,Loan Theme ID,Loan Theme Type,country,forkiva,region,geocode_old,ISO,number,amount,LocationName,geocode,names,geo,lat,lon,mpi_region,mpi_geo,rural_pct
133,VisionFund Kenya,General Financial Inclusion,a1050000000wf0f,General,Kenya,No,AHERO,,KEN,2,600,"AHERO, Kenya","[(-0.1744386, 34.9203383)]",Ahero; Kisumu County; Kenya,"(-0.1744386, 34.9203383)",-0.1744386,34.9203383,"Western, Kenya","(-0.115003, 34.851379)",65
133,VisionFund Kenya,General Financial Inclusion,a1050000000wf0f,General,Kenya,No,"Aldina, Jomvu",,KEN,5,1050,"Aldina, Jomvu, Kenya","[(-3.9963167, 39.6142085)]",Jomvu Road; Kaloleni; Mombasa; Coast; Kenya,"(-3.9963167, 39.6142085)",-3.9963167,39.6142085,"Central, Kenya","(-4.0627412, 39.6771481)",65
133,VisionFund Kenya,General Financial Inclusion,a1050000000wf0f,General,Kenya,No,"Aldina,Jomvu Kenya",,KEN,1,150,"Aldina,Jomvu Kenya, Kenya","[(-3.9963167, 39.6142085)]",Jomvu Road; Kaloleni; Mombasa; Coast; Kenya,"(-3.9963167, 39.6142085)",-3.9963167,39.6142085,"Central, Kenya","(-4.0627412, 39.6771481)",65
133,VisionFund Kenya,General Financial Inclusion,a1050000000wf0f,General,Kenya,No,"Aldina,Jomvu",,KEN,3,400,"Aldina,Jomvu, Kenya","[(-3.9963167, 39.6142085)]",Jomvu Road; Kaloleni; Mombasa; Coast; Kenya,"(-3.9963167, 39.6142085)",-3.9963167,39.6142085,"Central, Kenya","(-4.0627412, 39.6771481)",65
133,VisionFund Kenya,General Financial Inclusion,a1050000000wf0f,General,Kenya,No,"Bakarani, Mombasa",,KEN,5,1100,"Bakarani, Mombasa, Kenya","[(-4.0155238, 39.6935344)]",Old Malindi Road; Mombasa; Kenya,"(-4.0155238, 39.6935344)",-4.0155238,39.6935344,"Central, Kenya","(-4.0627412, 39.6771481)",65
133,VisionFund Kenya,General Financial Inclusion,a1050000000wf0f,General,Kenya,No,"Balozi, Nairobi",,KEN,1,700,"Balozi, Nairobi, Kenya","[(-1.3261052, 36.8507168)]","Balozi Estate, Balozi Road; Embakasi; Nairobi; Nairobi County; Kenya","(-1.3261052, 36.8507168)",-1.3261052,36.8507168,"Nairobi, Kenya","(-1.2920659, 36.8219462)",65
133,VisionFund Kenya,General Financial Inclusion,a1050000000wf0f,General,Kenya,No,Bamba Kilifi,,KEN,24,6350,"Bamba Kilifi, Kenya","[(-3.5423087, 39.5226547)]","['Bamba', 'Kilifi County', 'Kenya']","(-3.5423087, 39.5226547)",-3.5423087,39.5226547,"Central, Kenya","(-4.0627412, 39.6771481)",65
133,VisionFund Kenya,General Financial Inclusion,a1050000000wf0f,General,Kenya,No,"Bamburi, Mombasa",,KEN,13,3625,"Bamburi, Mombasa, Kenya","[(-3.9966585, 39.7188737)]",Bamburi; Mombasa; Coast; Kenya,"(-3.9966585, 39.7188737)",-3.9966585,39.7188737,"Central, Kenya","(-4.0627412, 39.6771481)",65
133,VisionFund Kenya,General Financial Inclusion,a1050000000PNSk,Green,Kenya,No,"Bamburi, Mombasa",,KEN,1,300,"Bamburi, Mombasa, Kenya","[(-3.9966585, 39.7188737)]",Bamburi; Mombasa; Coast; Kenya,"(-3.9966585, 39.7188737)",-3.9966585,39.7188737,"Central, Kenya","(-4.0627412, 39.6771481)",65
133,VisionFund Kenya,General Financial Inclusion,a1050000000wf0f,General,Kenya,No,"Bombolulu-Kisimani, Mombasa",,KEN,12,5775,"Bombolulu-Kisimani, Mombasa, Kenya","[(-4.0262369, 39.69717380000001)]",Nyali Road; Mombasa; Kenya,"(-4.0262369, 39.69717380000001)",-4.0262369,39.6971738,"Central, Kenya","(-4.0627412, 39.6771481)",65
133,VisionFund Kenya,General Financial Inclusion,a1050000000wf0f,General,Kenya,No,Bomet ;Narok,,KEN,17,4550,"Bomet ;Narok, Kenya","[(-0.7777854, 35.3356518)]",Bomet; Bomet County; Kenya,"(-0.7777854, 35.3356518)",-0.7777854,35.3356518,"Western, Kenya","(-0.115003, 34.851379)",65
133,VisionFund Kenya,General Financial Inclusion,a1050000000wf0f,General,Kenya,No,Bondo,,KEN,4,1500,"Bondo, Kenya","[(-0.1003371, 34.2754988)]",Bondo; Siaya; Kenya,"(-0.1003371, 34.2754988)",-0.1003371,34.2754988,"Western, Kenya","(-0.115003, 34.851379)",65
133,VisionFund Kenya,General Financial Inclusion,a1050000000wf0f,General,Kenya,No,Bulo Kisimani Mombasa,,KEN,2,825,"Bulo Kisimani Mombasa, Kenya",,,"(1000.0, 1000.0)",,,KEN,,65
133,VisionFund Kenya,General Financial Inclusion,a1050000000wf0f,General,Kenya,No,Busia,"(0.4166667, 34.25)",KEN,32,9600,"Busia, Kenya","[(0.4607691, 34.1114621)]",Busia; Busia County; Kenya,"(0.4607691, 34.1114621)",0.4607691,34.1114621,"Western, Kenya","(-0.115003, 34.851379)",65
133,VisionFund Kenya,General Financial Inclusion,a1050000000wf0f,General,Kenya,No,Butere,,KEN,3,500,"Butere, Kenya","[(0.2198155, 34.4918988)]",Butere; Kakamega County; Kenya,"(0.2198155, 34.4918988)",0.2198155,34.4918988,"Western, Kenya","(-0.115003, 34.851379)",65
133,VisionFund Kenya,General Financial Inclusion,a1050000000wf0f,General,Kenya,No,CHEPSIGOT,,KEN,2,1400,"CHEPSIGOT, Kenya","[(0.5347925, 35.5597273)]","['Kenya', 'Elgeyo-Marakwet County']","(0.5347925, 35.5597273)",0.5347925,35.5597273,"Eastern, Kenya","(0.7137256, 35.517938)",65
133,VisionFund Kenya,General Financial Inclusion,a1050000000wf0f,General,Kenya,No,"Cambodia,Changamwe Mombasa",,KEN,1,500,"Cambodia,Changamwe Mombasa, Kenya",,,"(1000.0, 1000.0)",,,KEN,,65
133,VisionFund Kenya,General Financial Inclusion,a1050000000wf0f,General,Kenya,No,"Chaani, Mombasa",,KEN,7,1500,"Chaani, Mombasa, Kenya","[(-4.0342822, 39.6260058)]",Chaani; Mombasa; Coast; Kenya,"(-4.0342822, 39.6260058)",-4.0342822,39.6260058,"Central, Kenya","(-4.0627412, 39.6771481)",65
133,VisionFund Kenya,General Financial Inclusion,a1050000000wf0f,General,Kenya,No,"Chamunyu, Mombasa",,KEN,1,200,"Chamunyu, Mombasa, Kenya",,,"(1000.0, 1000.0)",,,KEN,,65
133,VisionFund Kenya,General Financial Inclusion,a1050000000wf0f,General,Kenya,No,"Changamwe, Mombasa",,KEN,9,2500,"Changamwe, Mombasa, Kenya","[(-4.0162795, 39.6234241)]",Changamwe; Mombasa; Coast; Kenya,"(-4.0162795, 39.6234241)",-4.0162795,39.6234241,"Central, Kenya","(-4.0627412, 39.6771481)",65
133,VisionFund Kenya,General Financial Inclusion,a1050000000wf0f,General,Kenya,No,"Colorado, Bamburi Mombasa",,KEN,2,600,"Colorado, Bamburi Mombasa, Kenya",,,"(1000.0, 1000.0)",,,KEN,,65
133,VisionFund Kenya,General Financial Inclusion,a1050000000wf0f,General,Kenya,No,Colorado; Bamburi,,KEN,1,250,"Colorado; Bamburi, Kenya",,,"(1000.0, 1000.0)",,,KEN,,65
133,VisionFund Kenya,General Financial Inclusion,a1050000000wf0f,General,Kenya,No,"Concodia, Mombasa",,KEN,3,725,"Concodia, Mombasa, Kenya","[(-3.9962896, 39.6845655)]",Mombasa; Kenya,"(-3.9962896, 39.6845655)",-3.9962896,39.6845655,"Central, Kenya","(-4.0627412, 39.6771481)",65
133,VisionFund Kenya,General Financial Inclusion,a1050000007zZ9P,Agriculture,Kenya,No,ELDAMA RAVINE,"(0.05, 35.7166667)",KEN,9,3500,"ELDAMA RAVINE, Kenya","[(0.053037, 35.729768)]",Eldama Ravine; Baringo County; Kenya,"(0.053037, 35.729768)",0.053037,35.729768,"Eastern, Kenya","(0.7137256, 35.517938)",65
133,VisionFund Kenya,General Financial Inclusion,a1050000000wf0f,General,Kenya,No,ELDAMA RAVINE,"(0.05, 35.7166667)",KEN,34,14025,"ELDAMA RAVINE, Kenya","[(0.053037, 35.729768)]",Eldama Ravine; Baringo County; Kenya,"(0.053037, 35.729768)",0.053037,35.729768,"Eastern, Kenya","(0.7137256, 35.517938)",65
133,VisionFund Kenya,General Financial Inclusion,a1050000000wf0f,General,Kenya,No,Eldoret,"(0.5166667, 35.2833333)",KEN,464,170850,"Eldoret, Kenya","[(0.5142774999999999, 35.2697802)]",Eldoret; Uasin Gishu County; Kenya,"(0.5142774999999999, 35.2697802)",0.5142775,35.2697802,"Eastern, Kenya","(0.7137256, 35.517938)",65
133,VisionFund Kenya,General Financial Inclusion,a1050000007zZ9P,Agriculture,Kenya,No,Eldoret,"(0.5166667, 35.2833333)",KEN,206,62025,"Eldoret, Kenya","[(0.5142774999999999, 35.2697802)]",Eldoret; Uasin Gishu County; Kenya,"(0.5142774999999999, 35.2697802)",0.5142775,35.2697802,"Eastern, Kenya","(0.7137256, 35.517938)",65
133,VisionFund Kenya,General Financial Inclusion,a1050000000wf0f,General,Kenya,No,Emali,,KEN,1,100,"Emali, Kenya","[(-2.079689, 37.4731352)]",Emali; Makueni County; Kenya,"(-2.079689, 37.4731352)",-2.079689,37.4731352,"Nairobi, Kenya","(-1.2920659, 36.8219462)",65
133,VisionFund Kenya,General Financial Inclusion,a1050000000wf0f,General,Kenya,No,Engineer,,KEN,2,350,"Engineer, Kenya","[(-1.2722772, 36.8023087)]",14; Riverside Drive; Kilimani; Nairobi; Nairobi County; Kenya,"(-1.2722772, 36.8023087)",-1.2722772,36.8023087,"Nairobi, Kenya","(-1.2920659, 36.8219462)",65
133,VisionFund Kenya,General Financial Inclusion,a1050000000wf0f,General,Kenya,No,Furunzi;Malindi,,KEN,1,200,"Furunzi;Malindi, Kenya",,,"(1000.0, 1000.0)",,,KEN,,65
133,VisionFund Kenya,General Financial Inclusion,a1050000000wf0f,General,Kenya,No,"Jitoni, Mombasa",,KEN,12,3775,"Jitoni, Mombasa, Kenya",,,"(1000.0, 1000.0)",,,KEN,,65
133,VisionFund Kenya,General Financial Inclusion,a1050000000PNSk,Green,Kenya,No,"Jomvu, Mombasa",,KEN,2,500,"Jomvu, Mombasa, Kenya","[(-4.0513338, 39.6667124)]",Jomvu Road; Kaloleni; Mombasa; Mombasa County; Kenya,"(-4.0513338, 39.6667124)",-4.0513338,39.6667124,"Central, Kenya","(-4.0627412, 39.6771481)",65
133,VisionFund Kenya,General Financial Inclusion,a1050000000wf0f,General,Kenya,No,"Jomvu, Mombasa",,KEN,61,18225,"Jomvu, Mombasa, Kenya","[(-4.0513338, 39.6667124)]",Jomvu Road; Kaloleni; Mombasa; Mombasa County; Kenya,"(-4.0513338, 39.6667124)",-4.0513338,39.6667124,"Central, Kenya","(-4.0627412, 39.6771481)",65
133,VisionFund Kenya,General Financial Inclusion,a1050000000wf0f,General,Kenya,No,"K'oyango , Kisumu",,KEN,1,100,"K'oyango , Kisumu, Kenya","[(-0.0954222, 34.7841498)]",Kisumu; Manyatta; Kisumu County; Kenya,"(-0.0954222, 34.7841498)",-0.0954222,34.7841498,"Western, Kenya","(-0.115003, 34.851379)",65
133,VisionFund Kenya,General Financial Inclusion,a1050000000PNSk,Green,Kenya,No,KABARNET,,KEN,3,1050,"KABARNET, Kenya","[(0.490107, 35.743418)]",Kabarnet; Baringo County; Kenya,"(0.490107, 35.743418)",0.490107,35.743418,"Eastern, Kenya","(0.7137256, 35.517938)",65
133,VisionFund Kenya,General Financial Inclusion,a1050000007zZ9P,Agriculture,Kenya,No,KABARNET,,KEN,16,6875,"KABARNET, Kenya","[(0.490107, 35.743418)]",Kabarnet; Baringo County; Kenya,"(0.490107, 35.743418)",0.490107,35.743418,"Eastern, Kenya","(0.7137256, 35.517938)",65
133,VisionFund Kenya,General Financial Inclusion,a1050000007zZ9U,Education - Kenya,Kenya,No,KABARNET,,KEN,2,750,"KABARNET, Kenya","[(0.490107, 35.743418)]",Kabarnet; Baringo County; Kenya,"(0.490107, 35.743418)",0.490107,35.743418,"Eastern, Kenya","(0.7137256, 35.517938)",65
133,VisionFund Kenya,General Financial Inclusion,a1050000000wf0f,General,Kenya,No,KABARNET,,KEN,84,34150,"KABARNET, Kenya","[(0.490107, 35.743418)]",Kabarnet; Baringo County; Kenya,"(0.490107, 35.743418)",0.490107,35.743418,"Eastern, Kenya","(0.7137256, 35.517938)",65
133,VisionFund Kenya,General Financial Inclusion,a1050000000wf0f,General,Kenya,No,KABISAGA KAPSABET,,KEN,1,300,"KABISAGA KAPSABET, Kenya",,,"(1000.0, 1000.0)",,,KEN,,65
133,VisionFund Kenya,General Financial Inclusion,a1050000000wf0f,General,Kenya,No,"Kabartonjo, Baringo county",,KEN,8,2150,"Kabartonjo, Baringo county, Kenya","[(0.6331728, 35.79663070000001)]",Kabartonjo; Baringo County; Kenya,"(0.6331728, 35.79663070000001)",0.6331728,35.7966307,"Eastern, Kenya","(0.7137256, 35.517938)",65
133,VisionFund Kenya,General Financial Inclusion,a1050000000wf0f,General,Kenya,No,Kakamega,"(0.2833333, 34.75)",KEN,81,23425,"Kakamega, Kenya","[(0.2827307, 34.7518631)]",Kakamega; Kakamega County; Kenya,"(0.2827307, 34.7518631)",0.2827307,34.7518631,"Western, Kenya","(-0.115003, 34.851379)",65
133,VisionFund Kenya,General Financial Inclusion,a1050000007zZ9P,Agriculture,Kenya,No,Kakamega,"(0.2833333, 34.75)",KEN,4,1200,"Kakamega, Kenya","[(0.2827307, 34.7518631)]",Kakamega; Kakamega County; Kenya,"(0.2827307, 34.7518631)",0.2827307,34.7518631,"Western, Kenya","(-0.115003, 34.851379)",65
133,VisionFund Kenya,General Financial Inclusion,a1050000000PNSk,Green,Kenya,No,Kakamega,"(0.2833333, 34.75)",KEN,1,300,"Kakamega, Kenya","[(0.2827307, 34.7518631)]",Kakamega; Kakamega County; Kenya,"(0.2827307, 34.7518631)",0.2827307,34.7518631,"Western, Kenya","(-0.115003, 34.851379)",65
133,VisionFund Kenya,General Financial Inclusion,a1050000000wf0f,General,Kenya,No,Kalile ;Tala,,KEN,1,550,"Kalile ;Tala, Kenya","[(22.5407962, 88.3468419)]","3-C, Dimond Chambers; Gokhel Road; Bhowanipore; Kolkata; Kolkata; West Bengal; India; 700020","(22.5407962, 88.3468419)",22.5407962,88.3468419,"Coast, Kenya","(-3.2096898, 40.1169399)",65
133,VisionFund Kenya,General Financial Inclusion,a1050000000wf0f,General,Kenya,No,Kaloleni,,KEN,6,3000,"Kaloleni, Kenya","[(-3.8148404, 39.6285874)]",Kaloleni; Kilifi County; Kenya,"(-3.8148404, 39.6285874)",-3.8148404,39.6285874,"Central, Kenya","(-4.0627412, 39.6771481)",65
133,VisionFund Kenya,General Financial Inclusion,a1050000000wf0f,General,Kenya,No,"Kaloleni, Kilifi Kenya",,KEN,1,500,"Kaloleni, Kilifi Kenya, Kenya","[(-3.8148404, 39.6285874)]",Kaloleni; Kilifi County; Kenya,"(-3.8148404, 39.6285874)",-3.8148404,39.6285874,"Central, Kenya","(-4.0627412, 39.6771481)",65
133,VisionFund Kenya,General Financial Inclusion,a1050000007zZ9U,Education - Kenya,Kenya,No,Kapsabet,,KEN,23,9300,"Kapsabet, Kenya","[(0.202957, 35.0978385)]",Kapsabet; Nandi County; Kenya,"(0.202957, 35.0978385)",0.202957,35.0978385,"Western, Kenya","(-0.115003, 34.851379)",65
133,VisionFund Kenya,General Financial Inclusion,a1050000000wf0f,General,Kenya,No,Kapsabet,,KEN,289,116950,"Kapsabet, Kenya","[(0.202957, 35.0978385)]",Kapsabet; Nandi County; Kenya,"(0.202957, 35.0978385)",0.202957,35.0978385,"Western, Kenya","(-0.115003, 34.851379)",65
133,VisionFund Kenya,General Financial Inclusion,a1050000007zZ9P,Agriculture,Kenya,No,Kapsabet,,KEN,91,29725,"Kapsabet, Kenya","[(0.202957, 35.0978385)]",Kapsabet; Nandi County; Kenya,"(0.202957, 35.0978385)",0.202957,35.0978385,"Western, Kenya","(-0.115003, 34.851379)",65
133,VisionFund Kenya,General Financial Inclusion,a1050000007zZ9P,Agriculture,Kenya,No,"Kapsaos, Kapsabet",,KEN,1,300,"Kapsaos, Kapsabet, Kenya",,,"(1000.0, 1000.0)",,,KEN,,65
133,VisionFund Kenya,General Financial Inclusion,a1050000000wf0f,General,Kenya,No,"Kapsaos, Kapsabet",,KEN,1,400,"Kapsaos, Kapsabet, Kenya",,,"(1000.0, 1000.0)",,,KEN,,65
133,VisionFund Kenya,General Financial Inclusion,a1050000000wf0f,General,Kenya,No,"Kapture, Kapsabet",,KEN,1,975,"Kapture, Kapsabet, Kenya",,,"(1000.0, 1000.0)",,,KEN,,65
133,VisionFund Kenya,General Financial Inclusion,a1050000000wf0f,General,Kenya,No,"Katingani, Emali",,KEN,1,100,"Katingani, Emali, Kenya",,,"(1000.0, 1000.0)",,,KEN,,65
133,VisionFund Kenya,General Financial Inclusion,a1050000000wf0f,General,Kenya,No,Katito,,KEN,25,6350,"Katito, Kenya","[(-0.2699723000000001, 34.9717981)]",Awach; Kisumu County; Kenya,"(-0.2699723000000001, 34.9717981)",-0.2699723,34.9717981,"Western, Kenya","(-0.115003, 34.851379)",65
133,VisionFund Kenya,General Financial Inclusion,a1050000000wf0f,General,Kenya,No,Kericho,,KEN,1,600,"Kericho, Kenya","[(-0.3688967, 35.286286)]",Kericho; Kericho County; Kenya,"(-0.3688967, 35.286286)",-0.3688967,35.286286,"Western, Kenya","(-0.115003, 34.851379)",65
133,VisionFund Kenya,General Financial Inclusion,a1050000000wf0f,General,Kenya,No,"Kibunga, Bamburi",,KEN,1,150,"Kibunga, Bamburi, Kenya","[(-3.9835224, 39.7324244)]",Mombasa; Bamburi; Mombasa County; Kenya,"(-3.9835224, 39.7324244)",-3.9835224,39.7324244,"Central, Kenya","(-4.0627412, 39.6771481)",65
133,VisionFund Kenya,General Financial Inclusion,a1050000000wf0f,General,Kenya,No,"Kibuye, Kisumu",,KEN,1,300,"Kibuye, Kisumu, Kenya","[(-0.094717, 34.7694519)]",Kisumu; Kisumu County; Kenya,"(-0.094717, 34.7694519)",-0.094717,34.7694519,"Western, Kenya","(-0.115003, 34.851379)",65
133,VisionFund Kenya,General Financial Inclusion,a1050000000wf0f,General,Kenya,No,Kiembeni Mombasa,,KEN,1,300,"Kiembeni Mombasa, Kenya","[(-3.9832221, 39.6999205)]",Mombasa; Kenya,"(-3.9832221, 39.6999205)",-3.9832221,39.6999205,"Central, Kenya","(-4.0627412, 39.6771481)",65
133,VisionFund Kenya,General Financial Inclusion,a1050000000wf0f,General,Kenya,No,"Kiembeni, Mombasa",,KEN,1,300,"Kiembeni, Mombasa, Kenya","[(-3.9832221, 39.6999205)]",Mombasa; Kenya,"(-3.9832221, 39.6999205)",-3.9832221,39.6999205,"Central, Kenya","(-4.0627412, 39.6771481)",65
133,VisionFund Kenya,General Financial Inclusion,a1050000000wf0f,General,Kenya,No,Kilfi,,KEN,7,3125,"Kilfi, Kenya","[(-3.5106508, 39.9093269)]",Kilifi; Kilifi County; Kenya,"(-3.5106508, 39.9093269)",-3.5106508,39.9093269,"Coast, Kenya","(-3.2096898, 40.1169399)",65
133,VisionFund Kenya,General Financial Inclusion,a1050000000PNSk,Green,Kenya,No,Kilifi,,KEN,1,300,"Kilifi, Kenya","[(-3.5106508, 39.9093269)]",Kilifi; Kilifi County; Kenya,"(-3.5106508, 39.9093269)",-3.5106508,39.9093269,"Coast, Kenya","(-3.2096898, 40.1169399)",65
133,VisionFund Kenya,General Financial Inclusion,a1050000000wf0f,General,Kenya,No,Kilifi,,KEN,127,38475,"Kilifi, Kenya","[(-3.5106508, 39.9093269)]",Kilifi; Kilifi County; Kenya,"(-3.5106508, 39.9093269)",-3.5106508,39.9093269,"Coast, Kenya","(-3.2096898, 40.1169399)",65
133,VisionFund Kenya,General Financial Inclusion,a1050000000wf0f,General,Kenya,No,"Kimbunga, Bamburi Mombasa",,KEN,1,150,"Kimbunga, Bamburi Mombasa, Kenya","[(-3.9835224, 39.7324244)]",Mombasa; Kenya,"(-3.9835224, 39.7324244)",-3.9835224,39.7324244,"Central, Kenya","(-4.0627412, 39.6771481)",65
133,VisionFund Kenya,General Financial Inclusion,a1050000000wf0f,General,Kenya,No,Kisauni ;Mombasa,,KEN,4,1200,"Kisauni ;Mombasa, Kenya","[(-4.0226198, 39.6879333)]",Kisauni; Mombasa; Coast; Kenya,"(-4.0226198, 39.6879333)",-4.0226198,39.6879333,"Central, Kenya","(-4.0627412, 39.6771481)",65
133,VisionFund Kenya,General Financial Inclusion,a1050000000wf0f,General,Kenya,No,Kisauni mombasa,,KEN,2,800,"Kisauni mombasa, Kenya","[(-4.0226198, 39.6879333)]",Kisauni; Mombasa; Coast; Kenya,"(-4.0226198, 39.6879333)",-4.0226198,39.6879333,"Central, Kenya","(-4.0627412, 39.6771481)",65
133,VisionFund Kenya,General Financial Inclusion,a1050000000wf0f,General,Kenya,No,Kisii,"(-0.6833333, 34.7666667)",KEN,1,250,"Kisii, Kenya","[(-0.677334, 34.779603)]",Kisii; Kisii County; Kenya,"(-0.677334, 34.779603)",-0.677334,34.779603,"Western, Kenya","(-0.115003, 34.851379)",65
133,VisionFund Kenya,General Financial Inclusion,a1050000000wf0f,General,Kenya,No,Kisumu,"(-0.1, 34.75)",KEN,335,97275,"Kisumu, Kenya","[(-0.0917016, 34.7679568)]",Kisumu; Kisumu County; Kenya,"(-0.0917016, 34.7679568)",-0.0917016,34.7679568,"Western, Kenya","(-0.115003, 34.851379)",65
133,VisionFund Kenya,General Financial Inclusion,a1050000007zZ9P,Agriculture,Kenya,No,Kisumu,"(-0.1, 34.75)",KEN,8,1800,"Kisumu, Kenya","[(-0.0917016, 34.7679568)]",Kisumu; Kisumu County; Kenya,"(-0.0917016, 34.7679568)",-0.0917016,34.7679568,"Western, Kenya","(-0.115003, 34.851379)",65
133,VisionFund Kenya,General Financial Inclusion,a1050000007zZ9U,Education - Kenya,Kenya,No,Kitale,"(1.0166667, 35.0)",KEN,2,900,"Kitale, Kenya","[(1.019089, 35.0023048)]",Kitale; Trans-Nzoia County; Kenya,"(1.019089, 35.0023048)",1.019089,35.0023048,"Eastern, Kenya","(0.7137256, 35.517938)",65
133,VisionFund Kenya,General Financial Inclusion,a1050000007zZ9P,Agriculture,Kenya,No,Kitale,"(1.0166667, 35.0)",KEN,19,5350,"Kitale, Kenya","[(1.019089, 35.0023048)]",Kitale; Trans-Nzoia County; Kenya,"(1.019089, 35.0023048)",1.019089,35.0023048,"Eastern, Kenya","(0.7137256, 35.517938)",65
133,VisionFund Kenya,General Financial Inclusion,a1050000000wf0f,General,Kenya,No,Kitale,"(1.0166667, 35.0)",KEN,53,19525,"Kitale, Kenya","[(1.019089, 35.0023048)]",Kitale; Trans-Nzoia County; Kenya,"(1.019089, 35.0023048)",1.019089,35.0023048,"Eastern, Kenya","(0.7137256, 35.517938)",65
133,VisionFund Kenya,General Financial Inclusion,a1050000000wf0f,General,Kenya,No,Kitiri;Nyandarua South,,KEN,2,1000,"Kitiri;Nyandarua South, Kenya","[(-0.5688228, 36.5714586)]",Nyandarua District; Central; Kenya,"(-0.5688228, 36.5714586)",-0.5688228,36.5714586,"Nyanza, Kenya","(-1.2849963, 36.8272273)",65
133,VisionFund Kenya,General Financial Inclusion,a1050000000wf0f,General,Kenya,No,Koibatek,,KEN,2,1975,"Koibatek, Kenya","[(0.101248, 36.0345769)]",Mugurin Sand Dam; Baringo County; Kenya,"(0.101248, 36.0345769)",0.101248,36.0345769,"Eastern, Kenya","(0.7137256, 35.517938)",65
133,VisionFund Kenya,General Financial Inclusion,a1050000000wf0f,General,Kenya,No,Kombewa,,KEN,7,1900,"Kombewa, Kenya","[(-0.1089506, 34.5254903)]",C27; Kisumu County; Kenya,"(-0.1089506, 34.5254903)",-0.1089506,34.5254903,"Western, Kenya","(-0.115003, 34.851379)",65
133,VisionFund Kenya,General Financial Inclusion,a1050000000wf0f,General,Kenya,No,"Kongowea, Mombasa",,KEN,11,4175,"Kongowea, Mombasa, Kenya","[(-4.0406097, 39.6905123)]",Kongowea; Mombasa; Coast; Kenya,"(-4.0406097, 39.6905123)",-4.0406097,39.6905123,"Central, Kenya","(-4.0627412, 39.6771481)",65
133,VisionFund Kenya,General Financial Inclusion,a1050000000wf0f,General,Kenya,No,Koyango Manyatta-kisumu,,KEN,1,300,"Koyango Manyatta-kisumu, Kenya","[(-0.0954222, 34.7841498)]",Kisumu; Manyatta; Kisumu County; Kenya,"(-0.0954222, 34.7841498)",-0.0954222,34.7841498,"Western, Kenya","(-0.115003, 34.851379)",65
133,VisionFund Kenya,General Financial Inclusion,a1050000000wf0f,General,Kenya,No,"Likoni, Mombasa",,KEN,12,3200,"Likoni, Mombasa, Kenya","[(-4.0929017, 39.6614446)]",Likoni; Mombasa; Coast; Kenya,"(-4.0929017, 39.6614446)",-4.0929017,39.6614446,"Central, Kenya","(-4.0627412, 39.6771481)",65
133,VisionFund Kenya,General Financial Inclusion,a1050000000wf0f,General,Kenya,No,Lodwar,,KEN,1,200,"Lodwar, Kenya","[(3.1155165, 35.6040785)]",Lodwar; Turkana County; Kenya,"(3.1155165, 35.6040785)",3.1155165,35.6040785,"Eastern, Kenya","(0.7137256, 35.517938)",65
133,VisionFund Kenya,General Financial Inclusion,a1050000000wf0f,General,Kenya,No,Luanda;Vihiga,,KEN,2,750,"Luanda;Vihiga, Kenya","[(0.0240007, 34.5874448)]",Luanda; Vihiga County; Kenya,"(0.0240007, 34.5874448)",0.0240007,34.5874448,"Western, Kenya","(-0.115003, 34.851379)",65
133,VisionFund Kenya,General Financial Inclusion,a1050000000wf0f,General,Kenya,No,MARIGAT,,KEN,5,3600,"MARIGAT, Kenya","[(0.4694721000000001, 35.98327430000001)]",Marigat; Baringo County; Kenya,"(0.4694721000000001, 35.98327430000001)",0.4694721,35.9832743,"Eastern, Kenya","(0.7137256, 35.517938)",65
133,VisionFund Kenya,General Financial Inclusion,a1050000000wf0f,General,Kenya,No,"Mabirikani, Kilifi",,KEN,1,975,"Mabirikani, Kilifi, Kenya","[(-3.8634574, 39.4737607)]",Mariakani; Kilifi County; Kenya,"(-3.8634574, 39.4737607)",-3.8634574,39.4737607,"Central, Kenya","(-4.0627412, 39.6771481)",65
133,VisionFund Kenya,General Financial Inclusion,a1050000007zZ9P,Agriculture,Kenya,No,Machakos,"(-1.5166667, 37.2666667)",KEN,48,12675,"Machakos, Kenya","[(-1.5176837, 37.2634146)]",Machakos; Machakos County; Kenya,"(-1.5176837, 37.2634146)",-1.5176837,37.2634146,"Nyanza, Kenya","(-1.2849963, 36.8272273)",65
133,VisionFund Kenya,General Financial Inclusion,a1050000000wf0f,General,Kenya,No,Machakos,"(-1.5166667, 37.2666667)",KEN,626,160200,"Machakos, Kenya","[(-1.5176837, 37.2634146)]",Machakos; Machakos County; Kenya,"(-1.5176837, 37.2634146)",-1.5176837,37.2634146,"Nyanza, Kenya","(-1.2849963, 36.8272273)",65
133,VisionFund Kenya,General Financial Inclusion,a1050000000wf0f,General,Kenya,No,"Magogoni, Mombasa",,KEN,3,1200,"Magogoni, Mombasa, Kenya","[(-4.0282456, 39.6768846)]",Kengelani Road; Mombasa; Kenya,"(-4.0282456, 39.6768846)",-4.0282456,39.6768846,"Central, Kenya","(-4.0627412, 39.6771481)",65
133,VisionFund Kenya,General Financial Inclusion,a1050000000wf0f,General,Kenya,No,"Magongo, Mombasa",,KEN,1,200,"Magongo, Mombasa, Kenya","[(-4.0192735, 39.6162891)]",Magongo Road; Mombasa; Mombasa County; Kenya,"(-4.0192735, 39.6162891)",-4.0192735,39.6162891,"Central, Kenya","(-4.0627412, 39.6771481)",65
133,VisionFund Kenya,General Financial Inclusion,a1050000000wf0f,General,Kenya,No,"Majengo Mapya, Mombasa",,KEN,1,300,"Majengo Mapya, Mombasa, Kenya","[(-4.0875822, 39.666134)]",Mombasa; Kenya,"(-4.0875822, 39.666134)",-4.0875822,39.666134,"Central, Kenya","(-4.0627412, 39.6771481)",65
133,VisionFund Kenya,General Financial Inclusion,a1050000000wf0f,General,Kenya,No,Majengo mapya,,KEN,1,300,"Majengo mapya, Kenya","[(-4.0875822, 39.666134)]",Mombasa; Kenya,"(-4.0875822, 39.666134)",-4.0875822,39.666134,"Central, Kenya","(-4.0627412, 39.6771481)",65
133,VisionFund Kenya,General Financial Inclusion,a1050000000wf0f,General,Kenya,No,Makueni,,KEN,85,26550,"Makueni, Kenya","[(-1.7864953, 37.63110710000001)]","['Makueni County', 'Kenya']","(-1.7864953, 37.63110710000001)",-1.7864953,37.6311071,"Nyanza, Kenya","(-1.2849963, 36.8272273)",65
133,VisionFund Kenya,General Financial Inclusion,a1050000000wf0f,General,Kenya,No,"Manyatta,Kisumu",,KEN,1,200,"Manyatta,Kisumu, Kenya","[(-0.0862849, 34.7823648)]",Manyatta; Kisumu; Kisumu County; Kenya,"(-0.0862849, 34.7823648)",-0.0862849,34.7823648,"Western, Kenya","(-0.115003, 34.851379)",65
133,VisionFund Kenya,General Financial Inclusion,a1050000000wf0f,General,Kenya,No,Mari Mani   Mombasa,,KEN,3,1000,"Mari Mani   Mombasa, Kenya","[(-3.9609291, 39.6676423)]",Kengelani Road; Mombasa; Mombasa County; Kenya,"(-3.9609291, 39.6676423)",-3.9609291,39.6676423,"Central, Kenya","(-4.0627412, 39.6771481)",65
133,VisionFund Kenya,General Financial Inclusion,a1050000000wf0f,General,Kenya,No,"Mari Mani, Bamburi",,KEN,3,800,"Mari Mani, Bamburi, Kenya",,,"(1000.0, 1000.0)",,,KEN,,65
133,VisionFund Kenya,General Financial Inclusion,a1050000000wf0f,General,Kenya,No,"Mariakani, Kaloleni",,KEN,3,1375,"Mariakani, Kaloleni, Kenya","[(-3.8140235, 39.6331488)]",Kaloleni; Kilifi County; Kenya,"(-3.8140235, 39.6331488)",-3.8140235,39.6331488,"Central, Kenya","(-4.0627412, 39.6771481)",65
133,VisionFund Kenya,General Financial Inclusion,a1050000000wf0f,General,Kenya,No,Mariakani,,KEN,40,12875,"Mariakani, Kenya","[(-3.8634574, 39.4737607)]","['Mariakani', 'Kilifi County', 'Kenya']","(-3.8634574, 39.4737607)",-3.8634574,39.4737607,"Central, Kenya","(-4.0627412, 39.6771481)",65
133,VisionFund Kenya,General Financial Inclusion,a1050000000wf0f,General,Kenya,No,"Marikiti, Mombasa",,KEN,1,975,"Marikiti, Mombasa, Kenya","[(-4.0579581, 39.6745246)]",Nehru Road; Mombasa; Kenya,"(-4.0579581, 39.6745246)",-4.0579581,39.6745246,"Central, Kenya","(-4.0627412, 39.6771481)",65
133,VisionFund Kenya,General Financial Inclusion,a1050000000wf0f,General,Kenya,No,"Matsangoni, Kilifi",,KEN,1,925,"Matsangoni, Kilifi, Kenya","[(-3.3889344, 39.9273118)]",Matsangoni; Kilifi County; Kenya,"(-3.3889344, 39.9273118)",-3.3889344,39.9273118,"Coast, Kenya","(-3.2096898, 40.1169399)",65
133,VisionFund Kenya,General Financial Inclusion,a1050000000wf0f,General,Kenya,No,Matuu,,KEN,145,44650,"Matuu, Kenya","[(-1.1407002, 37.5481236)]",Matuu; Machakos County; Kenya,"(-1.1407002, 37.5481236)",-1.1407002,37.5481236,"Nyanza, Kenya","(-1.2849963, 36.8272273)",65
133,VisionFund Kenya,General Financial Inclusion,a1050000007zZ9P,Agriculture,Kenya,No,Matuu,,KEN,6,1850,"Matuu, Kenya","[(-1.1407002, 37.5481236)]",Matuu; Machakos County; Kenya,"(-1.1407002, 37.5481236)",-1.1407002,37.5481236,"Nyanza, Kenya","(-1.2849963, 36.8272273)",65
133,VisionFund Kenya,General Financial Inclusion,a1050000000wf0f,General,Kenya,No,Mazeras; Mariakani,,KEN,4,1175,"Mazeras; Mariakani, Kenya","[(-3.9607225, 39.5473899)]",Mazeras; Kilifi County; Kenya,"(-3.9607225, 39.5473899)",-3.9607225,39.5473899,"Central, Kenya","(-4.0627412, 39.6771481)",65
133,VisionFund Kenya,General Financial Inclusion,a1050000000wf0f,General,Kenya,No,"Mgogengeni, Mombasa",,KEN,1,975,"Mgogengeni, Mombasa, Kenya",,,"(1000.0, 1000.0)",,,KEN,,65
133,VisionFund Kenya,General Financial Inclusion,a1050000000wf0f,General,Kenya,No,"Migosi, Kisumu",,KEN,1,200,"Migosi, Kisumu, Kenya","[(-0.0800459, 34.7816743)]",Migosi; Kisumu; Kisumu County; Kenya,"(-0.0800459, 34.7816743)",-0.0800459,34.7816743,"Western, Kenya","(-0.115003, 34.851379)",65
133,VisionFund Kenya,General Financial Inclusion,a1050000000wf0f,General,Kenya,No,"Mikindani, Mombasa",,KEN,71,18600,"Mikindani, Mombasa, Kenya","[(-4.007916199999999, 39.6285874)]",Mikindani; Mombasa; Coast; Kenya,"(-4.007916199999999, 39.6285874)",-4.0079162,39.6285874,"Central, Kenya","(-4.0627412, 39.6771481)",65
133,VisionFund Kenya,General Financial Inclusion,a1050000000PNSk,Green,Kenya,No,"Mikindani, Mombasa",,KEN,1,300,"Mikindani, Mombasa, Kenya","[(-4.007916199999999, 39.6285874)]",Mikindani; Mombasa; Coast; Kenya,"(-4.007916199999999, 39.6285874)",-4.0079162,39.6285874,"Central, Kenya","(-4.0627412, 39.6771481)",65
133,VisionFund Kenya,General Financial Inclusion,a1050000000PNSk,Green,Kenya,No,"Miknjuni, Miritini",,KEN,3,550,"Miknjuni, Miritini, Kenya","[(-3.9981655, 39.6010153)]",Mombasa; Kenya,"(-3.9981655, 39.6010153)",-3.9981655,39.6010153,"Central, Kenya","(-4.0627412, 39.6771481)",65
133,VisionFund Kenya,General Financial Inclusion,a1050000007zZ9P,Agriculture,Kenya,No,"Miknjuni, Miritini",,KEN,1,200,"Miknjuni, Miritini, Kenya","[(-3.9981655, 39.6010153)]",Mombasa; Kenya,"(-3.9981655, 39.6010153)",-3.9981655,39.6010153,"Central, Kenya","(-4.0627412, 39.6771481)",65
133,VisionFund Kenya,General Financial Inclusion,a1050000000wf0f,General,Kenya,No,"Miknjuni, Miritini",,KEN,7,1850,"Miknjuni, Miritini, Kenya","[(-3.9981655, 39.6010153)]",Mombasa; Kenya,"(-3.9981655, 39.6010153)",-3.9981655,39.6010153,"Central, Kenya","(-4.0627412, 39.6771481)",65
133,VisionFund Kenya,General Financial Inclusion,a1050000000wf0f,General,Kenya,No,"Mikoroshoni, Mombasa",,KEN,1,300,"Mikoroshoni, Mombasa, Kenya","[(-3.9691463, 39.7290704)]",Utange; Mombasa; Coast; Kenya,"(-3.9691463, 39.7290704)",-3.9691463,39.7290704,"Central, Kenya","(-4.0627412, 39.6771481)",65
133,VisionFund Kenya,General Financial Inclusion,a1050000000wf0f,General,Kenya,No,"Miritini, Mombasa",,KEN,9,2025,"Miritini, Mombasa, Kenya","[(-4.001638, 39.5976015)]",Miritini; Mombasa; Coast; Kenya,"(-4.001638, 39.5976015)",-4.001638,39.5976015,"Central, Kenya","(-4.0627412, 39.6771481)",65
133,VisionFund Kenya,General Financial Inclusion,a1050000000wf0f,General,Kenya,No,Mishomuhoroni Mombasa,,KEN,6,4675,"Mishomuhoroni Mombasa, Kenya","[(-4.021263, 39.6839264)]",Mombasa; Kenya,"(-4.021263, 39.6839264)",-4.021263,39.6839264,"Central, Kenya","(-4.0627412, 39.6771481)",65
133,VisionFund Kenya,General Financial Inclusion,a1050000000wf0f,General,Kenya,No,"Mkapuni, Kaloleni, Mombasa",,KEN,1,300,"Mkapuni, Kaloleni, Mombasa, Kenya","[(-3.899190099999999, 39.6032328)]",Kenya,"(-3.899190099999999, 39.6032328)",-3.8991901,39.6032328,"Central, Kenya","(-4.0627412, 39.6771481)",65
133,VisionFund Kenya,General Financial Inclusion,a1050000000wf0f,General,Kenya,No,"Mkapuni, Rabai Kaloleni",,KEN,1,300,"Mkapuni, Rabai Kaloleni, Kenya",,,"(1000.0, 1000.0)",,,KEN,,65
133,VisionFund Kenya,General Financial Inclusion,a1050000000wf0f,General,Kenya,No,Mombasa,"(-4.05, 39.6666667)",KEN,12,5950,"Mombasa, Kenya","[(-4.0434771, 39.6682065)]",Mombasa; Mombasa County; Kenya,"(-4.0434771, 39.6682065)",-4.0434771,39.6682065,"Central, Kenya","(-4.0627412, 39.6771481)",65
133,VisionFund Kenya,General Financial Inclusion,a1050000000wf0f,General,Kenya,No,"Mtongwe, Mombasa",,KEN,2,1100,"Mtongwe, Mombasa, Kenya","[(-4.0917613, 39.6440744)]",Mtongwe; Mombasa; Coast; Kenya,"(-4.0917613, 39.6440744)",-4.0917613,39.6440744,"Central, Kenya","(-4.0627412, 39.6771481)",65
133,VisionFund Kenya,General Financial Inclusion,a1050000000wf0f,General,Kenya,No,Mtopanga; Mombasa,,KEN,1,300,"Mtopanga; Mombasa, Kenya","[(-4, 39.7)]",Mto Panga; Mombasa; Mombasa County; Kenya,"(-4, 39.7)",-4,39.7,"Central, Kenya","(-4.0627412, 39.6771481)",65
133,VisionFund Kenya,General Financial Inclusion,a1050000000wf0f,General,Kenya,No,Mtwapa Mombasa,,KEN,1,700,"Mtwapa Mombasa, Kenya","[(-3.9385695, 39.7497984)]",Mtwapa; Mombasa County; Kenya,"(-3.9385695, 39.7497984)",-3.9385695,39.7497984,"Central, Kenya","(-4.0627412, 39.6771481)",65
133,VisionFund Kenya,General Financial Inclusion,a1050000000wf0f,General,Kenya,No,"Mwamlai Jomvu, Mombasa",,KEN,1,50,"Mwamlai Jomvu, Mombasa, Kenya",,,"(1000.0, 1000.0)",,,KEN,,65
133,VisionFund Kenya,General Financial Inclusion,a1050000000wf0f,General,Kenya,No,Mwamlai Mombasa,,KEN,2,350,"Mwamlai Mombasa, Kenya","[(-4.0351527, 39.6648462)]","['Chaani', 'Mombasa', 'Coast', 'Kenya']","(-4.0351527, 39.6648462)",-4.0351527,39.6648462,"Central, Kenya","(-4.0627412, 39.6771481)",65
133,VisionFund Kenya,General Financial Inclusion,a1050000000wf0f,General,Kenya,No,"Mwamlai, Chaani Kenya",,KEN,1,300,"Mwamlai, Chaani Kenya, Kenya","[(-4.0351527, 39.6648462)]",Chaani; Mombasa; Coast; Kenya,"(-4.0351527, 39.6648462)",-4.0351527,39.6648462,"Central, Kenya","(-4.0627412, 39.6771481)",65
133,VisionFund Kenya,General Financial Inclusion,a1050000000wf0f,General,Kenya,No,"Mwamlai, Mombasa",,KEN,1,150,"Mwamlai, Mombasa, Kenya","[(-4.0351527, 39.6648462)]",Chaani; Mombasa; Coast; Kenya,"(-4.0351527, 39.6648462)",-4.0351527,39.6648462,"Central, Kenya","(-4.0627412, 39.6771481)",65
133,VisionFund Kenya,General Financial Inclusion,a1050000000wf0f,General,Kenya,No,"Mwembelegeza,Bamburi Mombasa",,KEN,1,200,"Mwembelegeza,Bamburi Mombasa, Kenya","[(-4.0022496, 39.707903)]",Mombasa; Kenya,"(-4.0022496, 39.707903)",-4.0022496,39.707903,"Central, Kenya","(-4.0627412, 39.6771481)",65
133,VisionFund Kenya,General Financial Inclusion,a1050000000wf0f,General,Kenya,No,Nairobi,"(-1.2833333, 36.8166667)",KEN,4,2475,"Nairobi, Kenya","[(-1.2920659, 36.8219462)]",Nairobi; Nairobi County; Kenya,"(-1.2920659, 36.8219462)",-1.2920659,36.8219462,"Nairobi, Kenya","(-1.2920659, 36.8219462)",65
133,VisionFund Kenya,General Financial Inclusion,a1050000007zZ9P,Agriculture,Kenya,No,Nairobi,"(-1.2833333, 36.8166667)",KEN,1,100,"Nairobi, Kenya","[(-1.2920659, 36.8219462)]",Nairobi; Nairobi County; Kenya,"(-1.2920659, 36.8219462)",-1.2920659,36.8219462,"Nairobi, Kenya","(-1.2920659, 36.8219462)",65
133,VisionFund Kenya,General Financial Inclusion,a1050000000wf0f,General,Kenya,No,Naivasha,"(-0.7166667, 36.4333333)",KEN,62,27350,"Naivasha, Kenya","[(-0.7171778, 36.4310251)]",Naivasha; Nakuru County; Kenya,"(-0.7171778, 36.4310251)",-0.7171778,36.4310251,"Nyanza, Kenya","(-1.2849963, 36.8272273)",65
133,VisionFund Kenya,General Financial Inclusion,a1050000000PNSk,Green,Kenya,No,Naivasha,"(-0.7166667, 36.4333333)",KEN,2,900,"Naivasha, Kenya","[(-0.7171778, 36.4310251)]",Naivasha; Nakuru County; Kenya,"(-0.7171778, 36.4310251)",-0.7171778,36.4310251,"Nyanza, Kenya","(-1.2849963, 36.8272273)",65
133,VisionFund Kenya,General Financial Inclusion,a1050000007zZ9P,Agriculture,Kenya,No,Nakuru,"(-0.2833333, 36.0666667)",KEN,24,8125,"Nakuru, Kenya","[(-0.3030988, 36.080026)]",Nakuru; Nakuru County; Kenya,"(-0.3030988, 36.080026)",-0.3030988,36.080026,"Eastern, Kenya","(0.7137256, 35.517938)",65
133,VisionFund Kenya,General Financial Inclusion,a1050000000PNSk,Green,Kenya,No,Nakuru,"(-0.2833333, 36.0666667)",KEN,4,500,"Nakuru, Kenya","[(-0.3030988, 36.080026)]",Nakuru; Nakuru County; Kenya,"(-0.3030988, 36.080026)",-0.3030988,36.080026,"Eastern, Kenya","(0.7137256, 35.517938)",65
133,VisionFund Kenya,General Financial Inclusion,a1050000007zZ9U,Education - Kenya,Kenya,No,Nakuru,"(-0.2833333, 36.0666667)",KEN,1,150,"Nakuru, Kenya","[(-0.3030988, 36.080026)]",Nakuru; Nakuru County; Kenya,"(-0.3030988, 36.080026)",-0.3030988,36.080026,"Eastern, Kenya","(0.7137256, 35.517938)",65
133,VisionFund Kenya,General Financial Inclusion,a1050000000wf0f,General,Kenya,No,Nakuru,"(-0.2833333, 36.0666667)",KEN,118,48125,"Nakuru, Kenya","[(-0.3030988, 36.080026)]",Nakuru; Nakuru County; Kenya,"(-0.3030988, 36.080026)",-0.3030988,36.080026,"Eastern, Kenya","(0.7137256, 35.517938)",65
133,VisionFund Kenya,General Financial Inclusion,a1050000000wf0f,General,Kenya,No,"Namalakazi,Aldina Mombasa",,KEN,1,50,"Namalakazi,Aldina Mombasa, Kenya",,,"(1000.0, 1000.0)",,,KEN,,65
133,VisionFund Kenya,General Financial Inclusion,a1050000000wf0f,General,Kenya,No,Nandarasi;Nyandarua,,KEN,1,200,"Nandarasi;Nyandarua, Kenya","[(-0.5299577000000001, 36.570379)]",Kenya; Nyandarua County,"(-0.5299577000000001, 36.570379)",-0.5299577,36.570379,"Nyanza, Kenya","(-1.2849963, 36.8272273)",65
133,VisionFund Kenya,General Financial Inclusion,a1050000000wf0f,General,Kenya,No,Narok,"(0.5166667, 36.8666667)",KEN,60,26700,"Narok, Kenya","[(-1.0875428, 35.87706420000001)]",Narok; Narok County; Kenya,"(-1.0875428, 35.87706420000001)",-1.0875428,35.8770642,"Nairobi, Kenya","(-1.2920659, 36.8219462)",65
133,VisionFund Kenya,General Financial Inclusion,a1050000007zZ9P,Agriculture,Kenya,No,Narok,"(0.5166667, 36.8666667)",KEN,12,5025,"Narok, Kenya","[(-1.0875428, 35.87706420000001)]",Narok; Narok County; Kenya,"(-1.0875428, 35.87706420000001)",-1.0875428,35.8770642,"Nairobi, Kenya","(-1.2920659, 36.8219462)",65
133,VisionFund Kenya,General Financial Inclusion,a1050000000wf0f,General,Kenya,No,Ndunyu Njeru,,KEN,5,2000,"Ndunyu Njeru, Kenya","[(-0.5449803999999999, 36.5621393)]",Ndunyu Njeru; Nyandarua County; Kenya,"(-0.5449803999999999, 36.5621393)",-0.5449804,36.5621393,"Nyanza, Kenya","(-1.2849963, 36.8272273)",65
133,VisionFund Kenya,General Financial Inclusion,a1050000007zZ9P,Agriculture,Kenya,No,Nyahururu,,KEN,3,850,"Nyahururu, Kenya","[(0.0351644, 36.3642919)]",Nyahururu; Nyandarua County; Kenya,"(0.0351644, 36.3642919)",0.0351644,36.3642919,"Eastern, Kenya","(0.7137256, 35.517938)",65
133,VisionFund Kenya,General Financial Inclusion,a1050000000wf0f,General,Kenya,No,Nyahururu,,KEN,9,3700,"Nyahururu, Kenya","[(0.0351644, 36.3642919)]",Nyahururu; Nyandarua County; Kenya,"(0.0351644, 36.3642919)",0.0351644,36.3642919,"Eastern, Kenya","(0.7137256, 35.517938)",65
133,VisionFund Kenya,General Financial Inclusion,a1050000000wf0f,General,Kenya,No,Nyalenda;Kisumu,,KEN,1,200,"Nyalenda;Kisumu, Kenya","[(-0.1266702, 34.7575059)]",Nyalenda; Kisumu; Kisumu County; Kenya,"(-0.1266702, 34.7575059)",-0.1266702,34.7575059,"Western, Kenya","(-0.115003, 34.851379)",65
133,VisionFund Kenya,General Financial Inclusion,a1050000000wf0f,General,Kenya,No,Nyandarua South,,KEN,62,28700,"Nyandarua South, Kenya","[(-0.3994104, 36.4895161)]",Nyandarua County; Kenya,"(-0.3994104, 36.4895161)",-0.3994104,36.4895161,"Nyanza, Kenya","(-1.2849963, 36.8272273)",65
133,VisionFund Kenya,General Financial Inclusion,a1050000000wf0f,General,Kenya,No,Nyandarua,,KEN,2,500,"Nyandarua, Kenya","[(-0.3994104, 36.4895161)]",Nyandarua County; Kenya,"(-0.3994104, 36.4895161)",-0.3994104,36.4895161,"Nyanza, Kenya","(-1.2849963, 36.8272273)",65
133,VisionFund Kenya,General Financial Inclusion,a1050000000wf0f,General,Kenya,No,Obunga;Kisumu,,KEN,1,300,"Obunga;Kisumu, Kenya","[(-0.07957729999999999, 34.7699362)]",Obunga; Manyatta; Kisumu; Kisumu County; Kenya,"(-0.07957729999999999, 34.7699362)",-0.0795773,34.7699362,"Western, Kenya","(-0.115003, 34.851379)",65
133,VisionFund Kenya,General Financial Inclusion,a1050000000wf0f,General,Kenya,No,Old town Mombasa,,KEN,1,300,"Old town Mombasa, Kenya","[(-4.0581134, 39.6756818)]",Old Town; Mombasa; Coast; Kenya,"(-4.0581134, 39.6756818)",-4.0581134,39.6756818,"Central, Kenya","(-4.0627412, 39.6771481)",65
133,VisionFund Kenya,General Financial Inclusion,a1050000000wf0f,General,Kenya,No,Olkalou,,KEN,4,1500,"Olkalou, Kenya","[(-0.272699, 36.3775152)]",Ol Kalou; Nyandarua County; Kenya,"(-0.272699, 36.3775152)",-0.272699,36.3775152,"Nyanza, Kenya","(-1.2849963, 36.8272273)",65
133,VisionFund Kenya,General Financial Inclusion,a1050000000wf0f,General,Kenya,No,"Riat,Kisumu",,KEN,4,800,"Riat,Kisumu, Kenya","[(-0.0546037, 34.7564376)]",Kisumu; East Kisumu; Kisumu County; Kenya,"(-0.0546037, 34.7564376)",-0.0546037,34.7564376,"Western, Kenya","(-0.115003, 34.851379)",65
133,VisionFund Kenya,General Financial Inclusion,a1050000000wf0f,General,Kenya,No,Sakutiek-Naivasha,,KEN,2,1450,"Sakutiek-Naivasha, Kenya",,,"(1000.0, 1000.0)",,,KEN,,65
133,VisionFund Kenya,General Financial Inclusion,a1050000000wf0f,General,Kenya,No,Shieywe Vihiga,,KEN,1,600,"Shieywe Vihiga, Kenya",,,"(1000.0, 1000.0)",,,KEN,,65
133,VisionFund Kenya,General Financial Inclusion,a1050000000wf0f,General,Kenya,No,Shika Adabu Likoni Mombasa,,KEN,1,400,"Shika Adabu Likoni Mombasa, Kenya","[(-4.116207699999999, 39.63743100000001)]",Likoni-Ukunda Road; Mombasa; Kenya,"(-4.116207699999999, 39.63743100000001)",-4.1162077,39.637431,"Central, Kenya","(-4.0627412, 39.6771481)",65
133,VisionFund Kenya,General Financial Inclusion,a1050000000wf0f,General,Kenya,No,Siaya,"(0.06, 34.2861111)",KEN,34,8250,"Siaya, Kenya","[(-0.09982379999999999, 34.2747004)]",Siaya; Kenya,"(-0.09982379999999999, 34.2747004)",-0.0998238,34.2747004,"Western, Kenya","(-0.115003, 34.851379)",65
133,VisionFund Kenya,General Financial Inclusion,a1050000000wf0f,General,Kenya,No,Tala,,KEN,22,6075,"Tala, Kenya","[(-1.2670262, 37.3201328)]",Tala; Machakos County; Kenya,"(-1.2670262, 37.3201328)",-1.2670262,37.3201328,"Nyanza, Kenya","(-1.2849963, 36.8272273)",65
133,VisionFund Kenya,General Financial Inclusion,a1050000007zZ9P,Agriculture,Kenya,No,Tala,,KEN,12,3800,"Tala, Kenya","[(-1.2670262, 37.3201328)]",Tala; Machakos County; Kenya,"(-1.2670262, 37.3201328)",-1.2670262,37.3201328,"Nyanza, Kenya","(-1.2849963, 36.8272273)",65
133,VisionFund Kenya,General Financial Inclusion,a1050000007zZ9P,Agriculture,Kenya,No,Tala;Kangundo,,KEN,49,11625,"Tala;Kangundo, Kenya","[(-1.2670262, 37.3201328)]",Tala; Machakos County; Kenya,"(-1.2670262, 37.3201328)",-1.2670262,37.3201328,"Nyanza, Kenya","(-1.2849963, 36.8272273)",65
133,VisionFund Kenya,General Financial Inclusion,a1050000000wf0f,General,Kenya,No,Tala;Kangundo,,KEN,397,107650,"Tala;Kangundo, Kenya","[(-1.2670262, 37.3201328)]",Tala; Machakos County; Kenya,"(-1.2670262, 37.3201328)",-1.2670262,37.3201328,"Nyanza, Kenya","(-1.2849963, 36.8272273)",65
133,VisionFund Kenya,General Financial Inclusion,a1050000000wf0f,General,Kenya,No,"Tezo, Kilifi",,KEN,1,400,"Tezo, Kilifi, Kenya","[(-3.5363373, 39.8793465)]",B8; Kilifi; Kilifi County; Kenya,"(-3.5363373, 39.8793465)",-3.5363373,39.8793465,"Coast, Kenya","(-3.2096898, 40.1169399)",65
133,VisionFund Kenya,General Financial Inclusion,a1050000000wf0f,General,Kenya,No,"Uyombo, Kilifi",,KEN,2,1225,"Uyombo, Kilifi, Kenya","[(-3.3950636, 39.9632657)]",Uyombo; Kilifi County; Kenya,"(-3.3950636, 39.9632657)",-3.3950636,39.9632657,"Coast, Kenya","(-3.2096898, 40.1169399)",65
133,VisionFund Kenya,General Financial Inclusion,a1050000000wf0f,General,Kenya,No,Vihiga,"(0.3, 34.9333333)",KEN,5,1350,"Vihiga, Kenya","[(0.0815877, 34.7229347)]",Vihiga County; Kenya,"(0.0815877, 34.7229347)",0.0815877,34.7229347,"Western, Kenya","(-0.115003, 34.851379)",65
133,VisionFund Kenya,General Financial Inclusion,a1050000000wf0f,General,Kenya,No,Vihiga;,,KEN,3,675,"Vihiga;, Kenya","[(0.0815877, 34.7229347)]",Vihiga County; Kenya,"(0.0815877, 34.7229347)",0.0815877,34.7229347,"Western, Kenya","(-0.115003, 34.851379)",65
133,VisionFund Kenya,General Financial Inclusion,a1050000000wf0f,General,Kenya,No,Vikwatani Mombasa,,KEN,5,1500,"Vikwatani Mombasa, Kenya","[(-3.9995334, 39.6937044)]",Mombasa; Kenya,"(-3.9995334, 39.6937044)",-3.9995334,39.6937044,"Central, Kenya","(-4.0627412, 39.6771481)",65
133,VisionFund Kenya,General Financial Inclusion,a1050000000wf0f,General,Kenya,No,"Vikwatani, Mombasa",,KEN,6,1200,"Vikwatani, Mombasa, Kenya","[(-3.9995334, 39.6937044)]",Mombasa; Kenya,"(-3.9995334, 39.6937044)",-3.9995334,39.6937044,"Central, Kenya","(-4.0627412, 39.6771481)",65
133,VisionFund Kenya,General Financial Inclusion,a1050000000wf0f,General,Kenya,No,Voi,,KEN,39,17900,"Voi, Kenya","[(-3.3973104, 38.5559336)]",Voi; Taita-Taveta County; Kenya,"(-3.3973104, 38.5559336)",-3.3973104,38.5559336,"Central, Kenya","(-4.0627412, 39.6771481)",65
133,VisionFund Kenya,General Financial Inclusion,a1050000000PNSk,Green,Kenya,No,Voi,,KEN,1,500,"Voi, Kenya","[(-3.3973104, 38.5559336)]",Voi; Taita-Taveta County; Kenya,"(-3.3973104, 38.5559336)",-3.3973104,38.5559336,"Central, Kenya","(-4.0627412, 39.6771481)",65
138,SMEP Microfinance Bank,General Financial Inclusion,a1050000002XlHG,Agriculture,Kenya,No,Athi river,,KEN,1,600,"Athi river, Kenya","[(-1.4577245, 36.9785033)]",Athi River; Machakos County; Kenya,"(-1.4577245, 36.9785033)",-1.4577245,36.9785033,"Nairobi, Kenya","(-1.2920659, 36.8219462)",
138,SMEP Microfinance Bank,General Financial Inclusion,a1050000002XlHG,Agriculture,Kenya,No,Bondo,,KEN,6,2200,"Bondo, Kenya","[(-0.1003371, 34.2754988)]",Bondo; Siaya; Kenya,"(-0.1003371, 34.2754988)",-0.1003371,34.2754988,"Western, Kenya","(-0.115003, 34.851379)",
138,SMEP Microfinance Bank,General Financial Inclusion,a1050000000wf0j,General,Kenya,No,Bondo,,KEN,44,18325,"Bondo, Kenya","[(-0.1003371, 34.2754988)]",Bondo; Siaya; Kenya,"(-0.1003371, 34.2754988)",-0.1003371,34.2754988,"Western, Kenya","(-0.115003, 34.851379)",
138,SMEP Microfinance Bank,General Financial Inclusion,a1050000000wf0j,General,Kenya,No,Bungoma,"(0.5666667, 34.5666667)",KEN,268,122050,"Bungoma, Kenya","[(0.5695252, 34.5583766)]",Bungoma; Bungoma County; Kenya,"(0.5695252, 34.5583766)",0.5695252,34.5583766,"Western, Kenya","(-0.115003, 34.851379)",
138,SMEP Microfinance Bank,General Financial Inclusion,a1050000002Vk6i,Higher Education,Kenya,No,Bungoma,"(0.5666667, 34.5666667)",KEN,1,300,"Bungoma, Kenya","[(0.5695252, 34.5583766)]",Bungoma; Bungoma County; Kenya,"(0.5695252, 34.5583766)",0.5695252,34.5583766,"Western, Kenya","(-0.115003, 34.851379)",
138,SMEP Microfinance Bank,General Financial Inclusion,a1050000002XlHG,Agriculture,Kenya,No,Bungoma,"(0.5666667, 34.5666667)",KEN,6,3200,"Bungoma, Kenya","[(0.5695252, 34.5583766)]",Bungoma; Bungoma County; Kenya,"(0.5695252, 34.5583766)",0.5695252,34.5583766,"Western, Kenya","(-0.115003, 34.851379)",
138,SMEP Microfinance Bank,General Financial Inclusion,a1050000000wf0j,General,Kenya,No,Busia,"(0.4166667, 34.25)",KEN,177,102125,"Busia, Kenya","[(0.4607691, 34.1114621)]",Busia; Busia County; Kenya,"(0.4607691, 34.1114621)",0.4607691,34.1114621,"Western, Kenya","(-0.115003, 34.851379)",
138,SMEP Microfinance Bank,General Financial Inclusion,a1050000002XlHG,Agriculture,Kenya,No,Busia,"(0.4166667, 34.25)",KEN,4,1750,"Busia, Kenya","[(0.4607691, 34.1114621)]",Busia; Busia County; Kenya,"(0.4607691, 34.1114621)",0.4607691,34.1114621,"Western, Kenya","(-0.115003, 34.851379)",
138,SMEP Microfinance Bank,General Financial Inclusion,a1050000002XlHG,Agriculture,Kenya,No,Changamwe,,KEN,3,600,"Changamwe, Kenya","[(-4.0162795, 39.6234241)]",Changamwe; Mombasa; Coast; Kenya,"(-4.0162795, 39.6234241)",-4.0162795,39.6234241,"Central, Kenya","(-4.0627412, 39.6771481)",
138,SMEP Microfinance Bank,General Financial Inclusion,a1050000000wf0j,General,Kenya,No,Changamwe,,KEN,140,75000,"Changamwe, Kenya","[(-4.0162795, 39.6234241)]",Changamwe; Mombasa; Coast; Kenya,"(-4.0162795, 39.6234241)",-4.0162795,39.6234241,"Central, Kenya","(-4.0627412, 39.6771481)",
138,SMEP Microfinance Bank,General Financial Inclusion,a1050000000wf0j,General,Kenya,No,Chuka,"(-0.3333333, 37.65)",KEN,63,32000,"Chuka, Kenya","[(-0.322865, 37.6546274)]",Chuka; Tharaka-Nithi County; Kenya,"(-0.322865, 37.6546274)",-0.322865,37.6546274,"North Eastern, Kenya","(-0.0190061, 37.6480812)",
138,SMEP Microfinance Bank,General Financial Inclusion,a1050000002XlHG,Agriculture,Kenya,No,Chuka,"(-0.3333333, 37.65)",KEN,38,17750,"Chuka, Kenya","[(-0.322865, 37.6546274)]",Chuka; Tharaka-Nithi County; Kenya,"(-0.322865, 37.6546274)",-0.322865,37.6546274,"North Eastern, Kenya","(-0.0190061, 37.6480812)",
138,SMEP Microfinance Bank,General Financial Inclusion,a1050000000PP7c,Water,Kenya,No,Chuka,"(-0.3333333, 37.65)",KEN,1,925,"Chuka, Kenya","[(-0.322865, 37.6546274)]",Chuka; Tharaka-Nithi County; Kenya,"(-0.322865, 37.6546274)",-0.322865,37.6546274,"North Eastern, Kenya","(-0.0190061, 37.6480812)",
138,SMEP Microfinance Bank,General Financial Inclusion,a1050000002XlHH,Agricultural Infrastructure,Kenya,No,Chuka,"(-0.3333333, 37.65)",KEN,1,1450,"Chuka, Kenya","[(-0.322865, 37.6546274)]",Chuka; Tharaka-Nithi County; Kenya,"(-0.322865, 37.6546274)",-0.322865,37.6546274,"North Eastern, Kenya","(-0.0190061, 37.6480812)",
138,SMEP Microfinance Bank,General Financial Inclusion,a1050000000wf0j,General,Kenya,No,Eldoret,"(0.5166667, 35.2833333)",KEN,81,46200,"Eldoret, Kenya","[(0.5142774999999999, 35.2697802)]",Eldoret; Uasin Gishu County; Kenya,"(0.5142774999999999, 35.2697802)",0.5142775,35.2697802,"Eastern, Kenya","(0.7137256, 35.517938)",
138,SMEP Microfinance Bank,General Financial Inclusion,a1050000002XlHG,Agriculture,Kenya,No,Eldoret,"(0.5166667, 35.2833333)",KEN,43,22375,"Eldoret, Kenya","[(0.5142774999999999, 35.2697802)]",Eldoret; Uasin Gishu County; Kenya,"(0.5142774999999999, 35.2697802)",0.5142775,35.2697802,"Eastern, Kenya","(0.7137256, 35.517938)",
138,SMEP Microfinance Bank,General Financial Inclusion,a1050000000wf0j,General,Kenya,No,Embu,"(-0.5333333, 37.45)",KEN,143,66950,"Embu, Kenya","[(-0.5388381, 37.4596409)]",Embu; Embu County; Kenya,"(-0.5388381, 37.4596409)",-0.5388381,37.4596409,"North Eastern, Kenya","(-0.0190061, 37.6480812)",
138,SMEP Microfinance Bank,General Financial Inclusion,a1050000002XlHG,Agriculture,Kenya,No,Embu,"(-0.5333333, 37.45)",KEN,70,31825,"Embu, Kenya","[(-0.5388381, 37.4596409)]",Embu; Embu County; Kenya,"(-0.5388381, 37.4596409)",-0.5388381,37.4596409,"North Eastern, Kenya","(-0.0190061, 37.6480812)",
138,SMEP Microfinance Bank,General Financial Inclusion,a1050000002XlHG,Agriculture,Kenya,No,Kakamega,"(0.2833333, 34.75)",KEN,6,2250,"Kakamega, Kenya","[(0.2827307, 34.7518631)]",Kakamega; Kakamega County; Kenya,"(0.2827307, 34.7518631)",0.2827307,34.7518631,"Western, Kenya","(-0.115003, 34.851379)",
138,SMEP Microfinance Bank,General Financial Inclusion,a1050000000wf0j,General,Kenya,No,Kakamega,"(0.2833333, 34.75)",KEN,187,97850,"Kakamega, Kenya","[(0.2827307, 34.7518631)]",Kakamega; Kakamega County; Kenya,"(0.2827307, 34.7518631)",0.2827307,34.7518631,"Western, Kenya","(-0.115003, 34.851379)",
138,SMEP Microfinance Bank,General Financial Inclusion,a1050000000wf0j,General,Kenya,No,Kawangware,,KEN,56,32950,"Kawangware, Kenya","[(-1.2827447, 36.7523206)]",Kawangware; Nairobi; Nairobi County; Kenya,"(-1.2827447, 36.7523206)",-1.2827447,36.7523206,"Nairobi, Kenya","(-1.2920659, 36.8219462)",
138,SMEP Microfinance Bank,General Financial Inclusion,a1050000002XlHG,Agriculture,Kenya,No,Kawangware,,KEN,1,500,"Kawangware, Kenya","[(-1.2827447, 36.7523206)]",Kawangware; Nairobi; Nairobi County; Kenya,"(-1.2827447, 36.7523206)",-1.2827447,36.7523206,"Nairobi, Kenya","(-1.2920659, 36.8219462)",
138,SMEP Microfinance Bank,General Financial Inclusion,a1050000002XlHG,Agriculture,Kenya,No,Kericho,,KEN,38,16450,"Kericho, Kenya","[(-0.3688967, 35.286286)]",Kericho; Kericho County; Kenya,"(-0.3688967, 35.286286)",-0.3688967,35.286286,"Western, Kenya","(-0.115003, 34.851379)",
138,SMEP Microfinance Bank,General Financial Inclusion,a1050000000wf0j,General,Kenya,No,Kericho,,KEN,122,58300,"Kericho, Kenya","[(-0.3688967, 35.286286)]",Kericho; Kericho County; Kenya,"(-0.3688967, 35.286286)",-0.3688967,35.286286,"Western, Kenya","(-0.115003, 34.851379)",
138,SMEP Microfinance Bank,General Financial Inclusion,a1050000000wf0j,General,Kenya,No,Keroka,,KEN,5,2050,"Keroka, Kenya","[(-0.7771138, 34.9458389)]",Keroka; Nyamira County; Kenya,"(-0.7771138, 34.9458389)",-0.7771138,34.9458389,"Western, Kenya","(-0.115003, 34.851379)",
138,SMEP Microfinance Bank,General Financial Inclusion,a1050000000wf0j,General,Kenya,No,Kerugoya,,KEN,2,2100,"Kerugoya, Kenya","[(-0.4993281, 37.2784835)]",Kerugoya; Kirinyaga County; Kenya,"(-0.4993281, 37.2784835)",-0.4993281,37.2784835,"North Eastern, Kenya","(-0.0190061, 37.6480812)",
138,SMEP Microfinance Bank,General Financial Inclusion,a1050000002XlHG,Agriculture,Kenya,No,Kiambu,"(-1.1666667, 36.8333333)",KEN,5,3400,"Kiambu, Kenya","[(-1.1748105, 36.8304102)]",Kiambu; Kiambu County; Kenya,"(-1.1748105, 36.8304102)",-1.1748105,36.8304102,"Nyanza, Kenya","(-1.2849963, 36.8272273)",
138,SMEP Microfinance Bank,General Financial Inclusion,a1050000000wf0j,General,Kenya,No,Kiambu,"(-1.1666667, 36.8333333)",KEN,38,19600,"Kiambu, Kenya","[(-1.1748105, 36.8304102)]",Kiambu; Kiambu County; Kenya,"(-1.1748105, 36.8304102)",-1.1748105,36.8304102,"Nyanza, Kenya","(-1.2849963, 36.8272273)",
138,SMEP Microfinance Bank,General Financial Inclusion,a1050000000wf0j,General,Kenya,No,Kibwezi,,KEN,55,22400,"Kibwezi, Kenya","[(-2.4105236, 37.96784700000001)]",Kibwezi; Makueni County; Kenya,"(-2.4105236, 37.96784700000001)",-2.4105236,37.967847,"Nairobi, Kenya","(-1.2920659, 36.8219462)",
138,SMEP Microfinance Bank,General Financial Inclusion,a1050000002XlHG,Agriculture,Kenya,No,Kibwezi,,KEN,8,4225,"Kibwezi, Kenya","[(-2.4105236, 37.96784700000001)]",Kibwezi; Makueni County; Kenya,"(-2.4105236, 37.96784700000001)",-2.4105236,37.967847,"Nairobi, Kenya","(-1.2920659, 36.8219462)",
138,SMEP Microfinance Bank,General Financial Inclusion,a1050000000wf0j,General,Kenya,No,Kilifi,,KEN,479,237350,"Kilifi, Kenya","[(-3.5106508, 39.9093269)]",Kilifi; Kilifi County; Kenya,"(-3.5106508, 39.9093269)",-3.5106508,39.9093269,"Coast, Kenya","(-3.2096898, 40.1169399)",
138,SMEP Microfinance Bank,General Financial Inclusion,a1050000000PP7c,Water,Kenya,No,Kilifi,,KEN,2,1150,"Kilifi, Kenya","[(-3.5106508, 39.9093269)]",Kilifi; Kilifi County; Kenya,"(-3.5106508, 39.9093269)",-3.5106508,39.9093269,"Coast, Kenya","(-3.2096898, 40.1169399)",
138,SMEP Microfinance Bank,General Financial Inclusion,a1050000002XlHG,Agriculture,Kenya,No,Kilifi,,KEN,22,12025,"Kilifi, Kenya","[(-3.5106508, 39.9093269)]",Kilifi; Kilifi County; Kenya,"(-3.5106508, 39.9093269)",-3.5106508,39.9093269,"Coast, Kenya","(-3.2096898, 40.1169399)",
138,SMEP Microfinance Bank,General Financial Inclusion,a1050000002XlHG,Agriculture,Kenya,No,Kisii,"(-0.6833333, 34.7666667)",KEN,2,800,"Kisii, Kenya","[(-0.677334, 34.779603)]",Kisii; Kisii County; Kenya,"(-0.677334, 34.779603)",-0.677334,34.779603,"Western, Kenya","(-0.115003, 34.851379)",
138,SMEP Microfinance Bank,General Financial Inclusion,a1050000000wf0j,General,Kenya,No,Kisii,"(-0.6833333, 34.7666667)",KEN,121,57350,"Kisii, Kenya","[(-0.677334, 34.779603)]",Kisii; Kisii County; Kenya,"(-0.677334, 34.779603)",-0.677334,34.779603,"Western, Kenya","(-0.115003, 34.851379)",
138,SMEP Microfinance Bank,General Financial Inclusion,a1050000002Vk6i,Higher Education,Kenya,No,Kisumu,"(-0.1, 34.75)",KEN,1,500,"Kisumu, Kenya","[(-0.0917016, 34.7679568)]",Kisumu; Kisumu County; Kenya,"(-0.0917016, 34.7679568)",-0.0917016,34.7679568,"Western, Kenya","(-0.115003, 34.851379)",
138,SMEP Microfinance Bank,General Financial Inclusion,a1050000000wf0j,General,Kenya,No,Kisumu,"(-0.1, 34.75)",KEN,396,192975,"Kisumu, Kenya","[(-0.0917016, 34.7679568)]",Kisumu; Kisumu County; Kenya,"(-0.0917016, 34.7679568)",-0.0917016,34.7679568,"Western, Kenya","(-0.115003, 34.851379)",
138,SMEP Microfinance Bank,General Financial Inclusion,a1050000002XlHG,Agriculture,Kenya,No,Kisumu,"(-0.1, 34.75)",KEN,3,1600,"Kisumu, Kenya","[(-0.0917016, 34.7679568)]",Kisumu; Kisumu County; Kenya,"(-0.0917016, 34.7679568)",-0.0917016,34.7679568,"Western, Kenya","(-0.115003, 34.851379)",
138,SMEP Microfinance Bank,General Financial Inclusion,a1050000002XlHG,Agriculture,Kenya,No,Kitale,"(1.0166667, 35.0)",KEN,170,75650,"Kitale, Kenya","[(1.019089, 35.0023048)]",Kitale; Trans-Nzoia County; Kenya,"(1.019089, 35.0023048)",1.019089,35.0023048,"Eastern, Kenya","(0.7137256, 35.517938)",
138,SMEP Microfinance Bank,General Financial Inclusion,a1050000000wf0j,General,Kenya,No,Kitale,"(1.0166667, 35.0)",KEN,131,70950,"Kitale, Kenya","[(1.019089, 35.0023048)]",Kitale; Trans-Nzoia County; Kenya,"(1.019089, 35.0023048)",1.019089,35.0023048,"Eastern, Kenya","(0.7137256, 35.517938)",
138,SMEP Microfinance Bank,General Financial Inclusion,a1050000000PP4O,Green,Kenya,No,Kitale,"(1.0166667, 35.0)",KEN,1,350,"Kitale, Kenya","[(1.019089, 35.0023048)]",Kitale; Trans-Nzoia County; Kenya,"(1.019089, 35.0023048)",1.019089,35.0023048,"Eastern, Kenya","(0.7137256, 35.517938)",
138,SMEP Microfinance Bank,General Financial Inclusion,a1050000000PP7c,Water,Kenya,No,Kitale,"(1.0166667, 35.0)",KEN,22,7175,"Kitale, Kenya","[(1.019089, 35.0023048)]",Kitale; Trans-Nzoia County; Kenya,"(1.019089, 35.0023048)",1.019089,35.0023048,"Eastern, Kenya","(0.7137256, 35.517938)",
138,SMEP Microfinance Bank,General Financial Inclusion,a1050000002Vk6i,Higher Education,Kenya,No,Kitengela,,KEN,1,500,"Kitengela, Kenya","[(-1.4752891, 36.9620104)]",Kitengela; Athi River; Eastern; Kenya,"(-1.4752891, 36.9620104)",-1.4752891,36.9620104,"Nairobi, Kenya","(-1.2920659, 36.8219462)",
138,SMEP Microfinance Bank,General Financial Inclusion,a1050000000wf0j,General,Kenya,No,Kitengela,,KEN,72,38075,"Kitengela, Kenya","[(-1.4752891, 36.9620104)]",Kitengela; Athi River; Eastern; Kenya,"(-1.4752891, 36.9620104)",-1.4752891,36.9620104,"Nairobi, Kenya","(-1.2920659, 36.8219462)",
138,SMEP Microfinance Bank,General Financial Inclusion,a1050000000wf0j,General,Kenya,No,Machakos,"(-1.5166667, 37.2666667)",KEN,175,103025,"Machakos, Kenya","[(-1.5176837, 37.2634146)]",Machakos; Machakos County; Kenya,"(-1.5176837, 37.2634146)",-1.5176837,37.2634146,"Nyanza, Kenya","(-1.2849963, 36.8272273)",
138,SMEP Microfinance Bank,General Financial Inclusion,a1050000002XlHG,Agriculture,Kenya,No,Machakos,"(-1.5166667, 37.2666667)",KEN,34,14425,"Machakos, Kenya","[(-1.5176837, 37.2634146)]",Machakos; Machakos County; Kenya,"(-1.5176837, 37.2634146)",-1.5176837,37.2634146,"Nyanza, Kenya","(-1.2849963, 36.8272273)",
138,SMEP Microfinance Bank,General Financial Inclusion,a1050000002XlHH,Agricultural Infrastructure,Kenya,No,Maua,,KEN,1,2625,"Maua, Kenya","[(0.2325548, 37.9413748)]",Maua; Meru County; Kenya,"(0.2325548, 37.9413748)",0.2325548,37.9413748,"North Eastern, Kenya","(-0.0190061, 37.6480812)",
138,SMEP Microfinance Bank,General Financial Inclusion,a1050000000PP7c,Water,Kenya,No,Maua,,KEN,7,3700,"Maua, Kenya","[(0.2325548, 37.9413748)]",Maua; Meru County; Kenya,"(0.2325548, 37.9413748)",0.2325548,37.9413748,"North Eastern, Kenya","(-0.0190061, 37.6480812)",
138,SMEP Microfinance Bank,General Financial Inclusion,a1050000002XlHG,Agriculture,Kenya,No,Maua,,KEN,46,23425,"Maua, Kenya","[(0.2325548, 37.9413748)]",Maua; Meru County; Kenya,"(0.2325548, 37.9413748)",0.2325548,37.9413748,"North Eastern, Kenya","(-0.0190061, 37.6480812)",
138,SMEP Microfinance Bank,General Financial Inclusion,a1050000000wf0j,General,Kenya,No,Maua,,KEN,360,187125,"Maua, Kenya","[(0.2325548, 37.9413748)]",Maua; Meru County; Kenya,"(0.2325548, 37.9413748)",0.2325548,37.9413748,"North Eastern, Kenya","(-0.0190061, 37.6480812)",
138,SMEP Microfinance Bank,General Financial Inclusion,a1050000000wf0j,General,Kenya,No,Meru,"(0.05, 37.65)",KEN,13,8875,"Meru, Kenya","[(0.0514721, 37.6456042)]",Meru; Meru County; Kenya,"(0.0514721, 37.6456042)",0.0514721,37.6456042,"North Eastern, Kenya","(-0.0190061, 37.6480812)",
138,SMEP Microfinance Bank,General Financial Inclusion,a1050000002XlHG,Agriculture,Kenya,No,Meru,"(0.05, 37.65)",KEN,13,6400,"Meru, Kenya","[(0.0514721, 37.6456042)]",Meru; Meru County; Kenya,"(0.0514721, 37.6456042)",0.0514721,37.6456042,"North Eastern, Kenya","(-0.0190061, 37.6480812)",
138,SMEP Microfinance Bank,General Financial Inclusion,a1050000000PP7c,Water,Kenya,No,Meru,"(0.05, 37.65)",KEN,1,300,"Meru, Kenya","[(0.0514721, 37.6456042)]",Meru; Meru County; Kenya,"(0.0514721, 37.6456042)",0.0514721,37.6456042,"North Eastern, Kenya","(-0.0190061, 37.6480812)",
138,SMEP Microfinance Bank,General Financial Inclusion,a1050000000wf0j,General,Kenya,No,Migori,"(-0.9833333, 34.25)",KEN,256,128125,"Migori, Kenya","[(-1.0706976, 34.4752715)]",Migori; Migori County; Kenya,"(-1.0706976, 34.4752715)",-1.0706976,34.4752715,"Western, Kenya","(-0.115003, 34.851379)",
138,SMEP Microfinance Bank,General Financial Inclusion,a1050000002XlHG,Agriculture,Kenya,No,Migori,"(-0.9833333, 34.25)",KEN,4,1950,"Migori, Kenya","[(-1.0706976, 34.4752715)]",Migori; Migori County; Kenya,"(-1.0706976, 34.4752715)",-1.0706976,34.4752715,"Western, Kenya","(-0.115003, 34.851379)",
138,SMEP Microfinance Bank,General Financial Inclusion,a1050000002XlHG,Agriculture,Kenya,No,Molo,,KEN,114,50275,"Molo, Kenya","[(-0.2488358, 35.7323709)]",Molo; Nakuru County; Kenya,"(-0.2488358, 35.7323709)",-0.2488358,35.7323709,"Western, Kenya","(-0.115003, 34.851379)",
138,SMEP Microfinance Bank,General Financial Inclusion,a1050000000wf0j,General,Kenya,No,Molo,,KEN,116,53825,"Molo, Kenya","[(-0.2488358, 35.7323709)]",Molo; Nakuru County; Kenya,"(-0.2488358, 35.7323709)",-0.2488358,35.7323709,"Western, Kenya","(-0.115003, 34.851379)",
138,SMEP Microfinance Bank,General Financial Inclusion,a1050000000PP7c,Water,Kenya,No,Molo,,KEN,1,975,"Molo, Kenya","[(-0.2488358, 35.7323709)]",Molo; Nakuru County; Kenya,"(-0.2488358, 35.7323709)",-0.2488358,35.7323709,"Western, Kenya","(-0.115003, 34.851379)",
138,SMEP Microfinance Bank,General Financial Inclusion,a1050000002Vk6i,Higher Education,Kenya,No,Mombasa,"(-4.05, 39.6666667)",KEN,2,700,"Mombasa, Kenya","[(-4.0434771, 39.6682065)]",Mombasa; Mombasa County; Kenya,"(-4.0434771, 39.6682065)",-4.0434771,39.6682065,"Central, Kenya","(-4.0627412, 39.6771481)",
138,SMEP Microfinance Bank,General Financial Inclusion,a1050000000wf0j,General,Kenya,No,Mombasa,"(-4.05, 39.6666667)",KEN,549,259675,"Mombasa, Kenya","[(-4.0434771, 39.6682065)]",Mombasa; Mombasa County; Kenya,"(-4.0434771, 39.6682065)",-4.0434771,39.6682065,"Central, Kenya","(-4.0627412, 39.6771481)",
138,SMEP Microfinance Bank,General Financial Inclusion,a1050000002XlHG,Agriculture,Kenya,No,Mombasa,"(-4.05, 39.6666667)",KEN,3,1100,"Mombasa, Kenya","[(-4.0434771, 39.6682065)]",Mombasa; Mombasa County; Kenya,"(-4.0434771, 39.6682065)",-4.0434771,39.6682065,"Central, Kenya","(-4.0627412, 39.6771481)",
138,SMEP Microfinance Bank,General Financial Inclusion,a1050000000PP4O,Green,Kenya,No,Mombasa,"(-4.05, 39.6666667)",KEN,1,500,"Mombasa, Kenya","[(-4.0434771, 39.6682065)]",Mombasa; Mombasa County; Kenya,"(-4.0434771, 39.6682065)",-4.0434771,39.6682065,"Central, Kenya","(-4.0627412, 39.6771481)",
138,SMEP Microfinance Bank,General Financial Inclusion,a1050000000wf0j,General,Kenya,No,Mombassa,,KEN,4,1300,"Mombassa, Kenya","[(-4.0434771, 39.6682065)]",Mombasa; Mombasa County; Kenya,"(-4.0434771, 39.6682065)",-4.0434771,39.6682065,"Central, Kenya","(-4.0627412, 39.6771481)",
138,SMEP Microfinance Bank,General Financial Inclusion,a1050000000wf0j,General,Kenya,No,Mumias,,KEN,2,750,"Mumias, Kenya","[(0.3332218, 34.4877423)]","['Mumias', 'Kakamega County', 'Kenya']","(0.3332218, 34.4877423)",0.3332218,34.4877423,"Western, Kenya","(-0.115003, 34.851379)",
138,SMEP Microfinance Bank,General Financial Inclusion,a1050000002XlHG,Agriculture,Kenya,No,Murang'a,,KEN,48,15425,"Murang'a, Kenya","[(-0.7957042999999999, 37.1322022)]",Muranga County; Kenya,"(-0.7957042999999999, 37.1322022)",-0.7957043,37.1322022,"Nyanza, Kenya","(-1.2849963, 36.8272273)",
138,SMEP Microfinance Bank,General Financial Inclusion,a1050000000wf0j,General,Kenya,No,Murang'a,,KEN,29,11175,"Murang'a, Kenya","[(-0.7957042999999999, 37.1322022)]",Muranga County; Kenya,"(-0.7957042999999999, 37.1322022)",-0.7957043,37.1322022,"Nyanza, Kenya","(-1.2849963, 36.8272273)",
138,SMEP Microfinance Bank,General Financial Inclusion,a1050000000wf0j,General,Kenya,No,Muranga,,KEN,1,500,"Muranga, Kenya","[(-0.7957042999999999, 37.1322022)]",Muranga County; Kenya,"(-0.7957042999999999, 37.1322022)",-0.7957043,37.1322022,"Nyanza, Kenya","(-1.2849963, 36.8272273)",
138,SMEP Microfinance Bank,General Financial Inclusion,a1050000002XlHG,Agriculture,Kenya,No,Muranga,,KEN,1,500,"Muranga, Kenya","[(-0.7957042999999999, 37.1322022)]",Muranga County; Kenya,"(-0.7957042999999999, 37.1322022)",-0.7957043,37.1322022,"Nyanza, Kenya","(-1.2849963, 36.8272273)",
138,SMEP Microfinance Bank,General Financial Inclusion,a1050000002Vk6i,Higher Education,Kenya,No,Mwea,,KEN,1,250,"Mwea, Kenya","[(-0.8233975, 37.6173695)]",Mwea National Reserve; Embu County; Kenya,"(-0.8233975, 37.6173695)",-0.8233975,37.6173695,"North Eastern, Kenya","(-0.0190061, 37.6480812)",
138,SMEP Microfinance Bank,General Financial Inclusion,a1050000002XlHG,Agriculture,Kenya,No,Mwea,,KEN,55,25950,"Mwea, Kenya","[(-0.8233975, 37.6173695)]",Mwea National Reserve; Embu County; Kenya,"(-0.8233975, 37.6173695)",-0.8233975,37.6173695,"North Eastern, Kenya","(-0.0190061, 37.6480812)",
138,SMEP Microfinance Bank,General Financial Inclusion,a1050000000wf0j,General,Kenya,No,Mwea,,KEN,148,75275,"Mwea, Kenya","[(-0.8233975, 37.6173695)]",Mwea National Reserve; Embu County; Kenya,"(-0.8233975, 37.6173695)",-0.8233975,37.6173695,"North Eastern, Kenya","(-0.0190061, 37.6480812)",
138,SMEP Microfinance Bank,General Financial Inclusion,a1050000000PP7c,Water,Kenya,No,Mwea,,KEN,7,3550,"Mwea, Kenya","[(-0.8233975, 37.6173695)]",Mwea National Reserve; Embu County; Kenya,"(-0.8233975, 37.6173695)",-0.8233975,37.6173695,"North Eastern, Kenya","(-0.0190061, 37.6480812)",
138,SMEP Microfinance Bank,General Financial Inclusion,a1050000002XlHH,Agricultural Infrastructure,Kenya,No,Mwea,,KEN,2,4375,"Mwea, Kenya","[(-0.8233975, 37.6173695)]",Mwea National Reserve; Embu County; Kenya,"(-0.8233975, 37.6173695)",-0.8233975,37.6173695,"North Eastern, Kenya","(-0.0190061, 37.6480812)",
138,SMEP Microfinance Bank,General Financial Inclusion,a1050000000wf0j,General,Kenya,No,Mwingi,,KEN,19,6500,"Mwingi, Kenya","[(-0.9374110000000001, 38.0605006)]",Mwingi; Kitui County; Kenya,"(-0.9374110000000001, 38.0605006)",-0.937411,38.0605006,"North Eastern, Kenya","(-0.0190061, 37.6480812)",
138,SMEP Microfinance Bank,General Financial Inclusion,a1050000000wf0j,General,Kenya,No,Nairobi Central,,KEN,74,40675,"Nairobi Central, Kenya","[(-1.2815735, 36.8223358)]",Nairobi Central; Nairobi; Nairobi County; Kenya,"(-1.2815735, 36.8223358)",-1.2815735,36.8223358,"Nyanza, Kenya","(-1.2849963, 36.8272273)",
138,SMEP Microfinance Bank,General Financial Inclusion,a1050000002XlHG,Agriculture,Kenya,No,Nairobi Central,,KEN,1,200,"Nairobi Central, Kenya","[(-1.2815735, 36.8223358)]",Nairobi Central; Nairobi; Nairobi County; Kenya,"(-1.2815735, 36.8223358)",-1.2815735,36.8223358,"Nyanza, Kenya","(-1.2849963, 36.8272273)",
138,SMEP Microfinance Bank,General Financial Inclusion,a1050000000wf0j,General,Kenya,No,Nairobi West,"(-1.3, 36.8166667)",KEN,1,500,"Nairobi West, Kenya","[(-1.3224253, 36.8196442)]",Nairobi West; Nairobi; Nairobi County; Kenya,"(-1.3224253, 36.8196442)",-1.3224253,36.8196442,"Nairobi, Kenya","(-1.2920659, 36.8219462)",
138,SMEP Microfinance Bank,General Financial Inclusion,a1050000000wf0j,General,Kenya,No,Nairobi,"(-1.2833333, 36.8166667)",KEN,77,45625,"Nairobi, Kenya","[(-1.2920659, 36.8219462)]",Nairobi; Nairobi County; Kenya,"(-1.2920659, 36.8219462)",-1.2920659,36.8219462,"Nairobi, Kenya","(-1.2920659, 36.8219462)",
138,SMEP Microfinance Bank,General Financial Inclusion,a1050000002Vk6i,Higher Education,Kenya,No,Naivasha,"(-0.7166667, 36.4333333)",KEN,1,400,"Naivasha, Kenya","[(-0.7171778, 36.4310251)]",Naivasha; Nakuru County; Kenya,"(-0.7171778, 36.4310251)",-0.7171778,36.4310251,"Nyanza, Kenya","(-1.2849963, 36.8272273)",
138,SMEP Microfinance Bank,General Financial Inclusion,a1050000002XlHH,Agricultural Infrastructure,Kenya,No,Naivasha,"(-0.7166667, 36.4333333)",KEN,4,7875,"Naivasha, Kenya","[(-0.7171778, 36.4310251)]",Naivasha; Nakuru County; Kenya,"(-0.7171778, 36.4310251)",-0.7171778,36.4310251,"Nyanza, Kenya","(-1.2849963, 36.8272273)",
138,SMEP Microfinance Bank,General Financial Inclusion,a1050000000wf0j,General,Kenya,No,Naivasha,"(-0.7166667, 36.4333333)",KEN,345,185600,"Naivasha, Kenya","[(-0.7171778, 36.4310251)]",Naivasha; Nakuru County; Kenya,"(-0.7171778, 36.4310251)",-0.7171778,36.4310251,"Nyanza, Kenya","(-1.2849963, 36.8272273)",
138,SMEP Microfinance Bank,General Financial Inclusion,a1050000000PP7c,Water,Kenya,No,Naivasha,"(-0.7166667, 36.4333333)",KEN,1,2875,"Naivasha, Kenya","[(-0.7171778, 36.4310251)]",Naivasha; Nakuru County; Kenya,"(-0.7171778, 36.4310251)",-0.7171778,36.4310251,"Nyanza, Kenya","(-1.2849963, 36.8272273)",
138,SMEP Microfinance Bank,General Financial Inclusion,a1050000002XlHG,Agriculture,Kenya,No,Naivasha,"(-0.7166667, 36.4333333)",KEN,15,8925,"Naivasha, Kenya","[(-0.7171778, 36.4310251)]",Naivasha; Nakuru County; Kenya,"(-0.7171778, 36.4310251)",-0.7171778,36.4310251,"Nyanza, Kenya","(-1.2849963, 36.8272273)",
138,SMEP Microfinance Bank,General Financial Inclusion,a1050000000wf0j,General,Kenya,No,Nakuru,"(-0.2833333, 36.0666667)",KEN,512,260375,"Nakuru, Kenya","[(-0.3030988, 36.080026)]",Nakuru; Nakuru County; Kenya,"(-0.3030988, 36.080026)",-0.3030988,36.080026,"Eastern, Kenya","(0.7137256, 35.517938)",
138,SMEP Microfinance Bank,General Financial Inclusion,a1050000002XlHG,Agriculture,Kenya,No,Nakuru,"(-0.2833333, 36.0666667)",KEN,53,26650,"Nakuru, Kenya","[(-0.3030988, 36.080026)]",Nakuru; Nakuru County; Kenya,"(-0.3030988, 36.080026)",-0.3030988,36.080026,"Eastern, Kenya","(0.7137256, 35.517938)",
138,SMEP Microfinance Bank,General Financial Inclusion,a1050000000wf0j,General,Kenya,No,Narok,"(0.5166667, 36.8666667)",KEN,44,20275,"Narok, Kenya","[(-1.0875428, 35.87706420000001)]",Narok; Narok County; Kenya,"(-1.0875428, 35.87706420000001)",-1.0875428,35.8770642,"Nairobi, Kenya","(-1.2920659, 36.8219462)",
138,SMEP Microfinance Bank,General Financial Inclusion,a1050000000PP7c,Water,Kenya,No,Narok,"(0.5166667, 36.8666667)",KEN,1,600,"Narok, Kenya","[(-1.0875428, 35.87706420000001)]",Narok; Narok County; Kenya,"(-1.0875428, 35.87706420000001)",-1.0875428,35.8770642,"Nairobi, Kenya","(-1.2920659, 36.8219462)",
138,SMEP Microfinance Bank,General Financial Inclusion,a1050000002XlHH,Agricultural Infrastructure,Kenya,No,Narok,"(0.5166667, 36.8666667)",KEN,1,1950,"Narok, Kenya","[(-1.0875428, 35.87706420000001)]",Narok; Narok County; Kenya,"(-1.0875428, 35.87706420000001)",-1.0875428,35.8770642,"Nairobi, Kenya","(-1.2920659, 36.8219462)",
138,SMEP Microfinance Bank,General Financial Inclusion,a1050000002XlHG,Agriculture,Kenya,No,Narok,"(0.5166667, 36.8666667)",KEN,8,5200,"Narok, Kenya","[(-1.0875428, 35.87706420000001)]",Narok; Narok County; Kenya,"(-1.0875428, 35.87706420000001)",-1.0875428,35.8770642,"Nairobi, Kenya","(-1.2920659, 36.8219462)",
138,SMEP Microfinance Bank,General Financial Inclusion,a1050000002XlHG,Agriculture,Kenya,No,Ngara,,KEN,16,8675,"Ngara, Kenya","[(-1.2746653, 36.8290646)]",Ngara; Ngara East; Nairobi; Nairobi County; Kenya,"(-1.2746653, 36.8290646)",-1.2746653,36.8290646,"Nyanza, Kenya","(-1.2849963, 36.8272273)",
138,SMEP Microfinance Bank,General Financial Inclusion,a1050000002Vk6i,Higher Education,Kenya,No,Ngara,,KEN,1,200,"Ngara, Kenya","[(-1.2746653, 36.8290646)]",Ngara; Ngara East; Nairobi; Nairobi County; Kenya,"(-1.2746653, 36.8290646)",-1.2746653,36.8290646,"Nyanza, Kenya","(-1.2849963, 36.8272273)",
138,SMEP Microfinance Bank,General Financial Inclusion,a1050000000wf0j,General,Kenya,No,Ngara,,KEN,190,108875,"Ngara, Kenya","[(-1.2746653, 36.8290646)]",Ngara; Ngara East; Nairobi; Nairobi County; Kenya,"(-1.2746653, 36.8290646)",-1.2746653,36.8290646,"Nyanza, Kenya","(-1.2849963, 36.8272273)",
138,SMEP Microfinance Bank,General Financial Inclusion,a1050000000wf0j,General,Kenya,No,Ngong,,KEN,12,4800,"Ngong, Kenya","[(-1.3562118, 36.6687545)]",Ngong; Kajiado County; Kenya,"(-1.3562118, 36.6687545)",-1.3562118,36.6687545,"Nairobi, Kenya","(-1.2920659, 36.8219462)",
138,SMEP Microfinance Bank,General Financial Inclusion,a1050000002XlHG,Agriculture,Kenya,No,Ngong,,KEN,1,200,"Ngong, Kenya","[(-1.3562118, 36.6687545)]",Ngong; Kajiado County; Kenya,"(-1.3562118, 36.6687545)",-1.3562118,36.6687545,"Nairobi, Kenya","(-1.2920659, 36.8219462)",
138,SMEP Microfinance Bank,General Financial Inclusion,a1050000000wf0j,General,Kenya,No,Nyahururu,,KEN,54,28875,"Nyahururu, Kenya","[(0.0351644, 36.3642919)]",Nyahururu; Nyandarua County; Kenya,"(0.0351644, 36.3642919)",0.0351644,36.3642919,"Eastern, Kenya","(0.7137256, 35.517938)",
138,SMEP Microfinance Bank,General Financial Inclusion,a1050000002XlHG,Agriculture,Kenya,No,Nyahururu,,KEN,120,66850,"Nyahururu, Kenya","[(0.0351644, 36.3642919)]",Nyahururu; Nyandarua County; Kenya,"(0.0351644, 36.3642919)",0.0351644,36.3642919,"Eastern, Kenya","(0.7137256, 35.517938)",
138,SMEP Microfinance Bank,General Financial Inclusion,a1050000000wf0j,General,Kenya,No,Oloitoktok,,KEN,9,4175,"Oloitoktok, Kenya","[(-2.9241722, 37.5041163)]",Oloitokitok; Kajiado County; Kenya,"(-2.9241722, 37.5041163)",-2.9241722,37.5041163,"Nairobi, Kenya","(-1.2920659, 36.8219462)",
138,SMEP Microfinance Bank,General Financial Inclusion,a1050000000wf0j,General,Kenya,No,Ongata-Rongai,,KEN,107,57625,"Ongata-Rongai, Kenya","[(-1.3938636, 36.7442377)]",Ongata Rongai; Nairobi County; Kenya,"(-1.3938636, 36.7442377)",-1.3938636,36.7442377,"Nairobi, Kenya","(-1.2920659, 36.8219462)",
138,SMEP Microfinance Bank,General Financial Inclusion,a1050000002Vk6i,Higher Education,Kenya,No,Taveta,,KEN,1,300,"Taveta, Kenya","[(-3.3997859, 37.6732489)]",Taveta; Taita-Taveta County; Kenya,"(-3.3997859, 37.6732489)",-3.3997859,37.6732489,"Central, Kenya","(-4.0627412, 39.6771481)",
138,SMEP Microfinance Bank,General Financial Inclusion,a1050000002XlHG,Agriculture,Kenya,No,Taveta,,KEN,68,34275,"Taveta, Kenya","[(-3.3997859, 37.6732489)]",Taveta; Taita-Taveta County; Kenya,"(-3.3997859, 37.6732489)",-3.3997859,37.6732489,"Central, Kenya","(-4.0627412, 39.6771481)",
138,SMEP Microfinance Bank,General Financial Inclusion,a1050000000PP7c,Water,Kenya,No,Taveta,,KEN,1,400,"Taveta, Kenya","[(-3.3997859, 37.6732489)]",Taveta; Taita-Taveta County; Kenya,"(-3.3997859, 37.6732489)",-3.3997859,37.6732489,"Central, Kenya","(-4.0627412, 39.6771481)",
138,SMEP Microfinance Bank,General Financial Inclusion,a1050000000wf0j,General,Kenya,No,Taveta,,KEN,312,149750,"Taveta, Kenya","[(-3.3997859, 37.6732489)]",Taveta; Taita-Taveta County; Kenya,"(-3.3997859, 37.6732489)",-3.3997859,37.6732489,"Central, Kenya","(-4.0627412, 39.6771481)",
138,SMEP Microfinance Bank,General Financial Inclusion,a1050000002XlHG,Agriculture,Kenya,No,Thika,,KEN,9,5000,"Thika, Kenya","[(-1.0387569, 37.0833753)]",Thika; Kiambu County; Kenya,"(-1.0387569, 37.0833753)",-1.0387569,37.0833753,"Nyanza, Kenya","(-1.2849963, 36.8272273)",
138,SMEP Microfinance Bank,General Financial Inclusion,a1050000000wf0j,General,Kenya,No,Thika,,KEN,90,41825,"Thika, Kenya","[(-1.0387569, 37.0833753)]",Thika; Kiambu County; Kenya,"(-1.0387569, 37.0833753)",-1.0387569,37.0833753,"Nyanza, Kenya","(-1.2849963, 36.8272273)",
138,SMEP Microfinance Bank,General Financial Inclusion,a1050000000wf0j,General,Kenya,No,Voi,,KEN,333,153575,"Voi, Kenya","[(-3.3973104, 38.5559336)]",Voi; Taita-Taveta County; Kenya,"(-3.3973104, 38.5559336)",-3.3973104,38.5559336,"Central, Kenya","(-4.0627412, 39.6771481)",
138,SMEP Microfinance Bank,General Financial Inclusion,a1050000002XlHG,Agriculture,Kenya,No,Voi,,KEN,29,9300,"Voi, Kenya","[(-3.3973104, 38.5559336)]",Voi; Taita-Taveta County; Kenya,"(-3.3973104, 38.5559336)",-3.3973104,38.5559336,"Central, Kenya","(-4.0627412, 39.6771481)",
138,SMEP Microfinance Bank,General Financial Inclusion,a1050000002Vk6i,Higher Education,Kenya,No,Voi,,KEN,3,950,"Voi, Kenya","[(-3.3973104, 38.5559336)]",Voi; Taita-Taveta County; Kenya,"(-3.3973104, 38.5559336)",-3.3973104,38.5559336,"Central, Kenya","(-4.0627412, 39.6771481)",
138,SMEP Microfinance Bank,General Financial Inclusion,a1050000000PP7c,Water,Kenya,No,karatina,,KEN,15,5700,"karatina, Kenya","[(-0.4831579999999999, 37.1273549)]",Karatina; Nyeri County; Kenya,"(-0.4831579999999999, 37.1273549)",-0.483158,37.1273549,"North Eastern, Kenya","(-0.0190061, 37.6480812)",
138,SMEP Microfinance Bank,General Financial Inclusion,a1050000000wf0j,General,Kenya,No,karatina,,KEN,84,36800,"karatina, Kenya","[(-0.4831579999999999, 37.1273549)]",Karatina; Nyeri County; Kenya,"(-0.4831579999999999, 37.1273549)",-0.483158,37.1273549,"North Eastern, Kenya","(-0.0190061, 37.6480812)",
138,SMEP Microfinance Bank,General Financial Inclusion,a1050000002XlHG,Agriculture,Kenya,No,karatina,,KEN,128,61775,"karatina, Kenya","[(-0.4831579999999999, 37.1273549)]",Karatina; Nyeri County; Kenya,"(-0.4831579999999999, 37.1273549)",-0.483158,37.1273549,"North Eastern, Kenya","(-0.0190061, 37.6480812)",
138,SMEP Microfinance Bank,General Financial Inclusion,a1050000002XlHG,Agriculture,Kenya,No,malindi,"(-3.2166667, 40.1166667)",KEN,4,800,"malindi, Kenya","[(-3.2191864, 40.1168906)]",Malindi; Kilifi County; Kenya,"(-3.2191864, 40.1168906)",-3.2191864,40.1168906,"Coast, Kenya","(-3.2096898, 40.1169399)",
138,SMEP Microfinance Bank,General Financial Inclusion,a1050000000PP7c,Water,Kenya,No,malindi,"(-3.2166667, 40.1166667)",KEN,5,1600,"malindi, Kenya","[(-3.2191864, 40.1168906)]",Malindi; Kilifi County; Kenya,"(-3.2191864, 40.1168906)",-3.2191864,40.1168906,"Coast, Kenya","(-3.2096898, 40.1169399)",
138,SMEP Microfinance Bank,General Financial Inclusion,a1050000000wf0j,General,Kenya,No,malindi,"(-3.2166667, 40.1166667)",KEN,77,31675,"malindi, Kenya","[(-3.2191864, 40.1168906)]",Malindi; Kilifi County; Kenya,"(-3.2191864, 40.1168906)",-3.2191864,40.1168906,"Coast, Kenya","(-3.2096898, 40.1169399)",
138,SMEP Microfinance Bank,General Financial Inclusion,a1050000002XlHG,Agriculture,Kenya,No,nyeri,,KEN,122,60625,"nyeri, Kenya","[(-0.4277809, 36.9433591)]",Nyeri; Nyeri County; Kenya,"(-0.4277809, 36.9433591)",-0.4277809,36.9433591,"North Eastern, Kenya","(-0.0190061, 37.6480812)",
138,SMEP Microfinance Bank,General Financial Inclusion,a1050000000wf0j,General,Kenya,No,nyeri,,KEN,100,52050,"nyeri, Kenya","[(-0.4277809, 36.9433591)]",Nyeri; Nyeri County; Kenya,"(-0.4277809, 36.9433591)",-0.4277809,36.9433591,"North Eastern, Kenya","(-0.0190061, 37.6480812)",
156,Juhudi Kilimo,General Financial Inclusion,a1050000000PNuX,Green,Kenya,Yes,Bomet,,KEN,93,7375,"Bomet, Kenya","[(-0.7855612, 35.3391395)]",Bomet County; Kenya,"(-0.7855612, 35.3391395)",-0.7855612,35.3391395,"Western, Kenya","(-0.115003, 34.851379)",99
156,Juhudi Kilimo,General Financial Inclusion,a1050000007R94k,Education - Kenya,Kenya,No,Bomet,,KEN,22,3800,"Bomet, Kenya","[(-0.7855612, 35.3391395)]",Bomet County; Kenya,"(-0.7855612, 35.3391395)",-0.7855612,35.3391395,"Western, Kenya","(-0.115003, 34.851379)",99
156,Juhudi Kilimo,General Financial Inclusion,a1050000002YMi8,Graduating Agriculture Loan,Kenya,Yes,Bomet,,KEN,1,2825,"Bomet, Kenya","[(-0.7855612, 35.3391395)]",Bomet County; Kenya,"(-0.7855612, 35.3391395)",-0.7855612,35.3391395,"Western, Kenya","(-0.115003, 34.851379)",99
156,Juhudi Kilimo,General Financial Inclusion,a1050000002VraP,Agriculture,Kenya,No,Bomet,,KEN,427,159450,"Bomet, Kenya","[(-0.7855612, 35.3391395)]",Bomet County; Kenya,"(-0.7855612, 35.3391395)",-0.7855612,35.3391395,"Western, Kenya","(-0.115003, 34.851379)",99
156,Juhudi Kilimo,General Financial Inclusion,a1050000002VraP,Agriculture,Kenya,No,Bungoma,"(0.5666667, 34.5666667)",KEN,535,177475,"Bungoma, Kenya","[(0.5695252, 34.5583766)]",Bungoma; Bungoma County; Kenya,"(0.5695252, 34.5583766)",0.5695252,34.5583766,"Western, Kenya","(-0.115003, 34.851379)",99
156,Juhudi Kilimo,General Financial Inclusion,a1050000000PNuX,Green,Kenya,Yes,Bungoma,"(0.5666667, 34.5666667)",KEN,69,5425,"Bungoma, Kenya","[(0.5695252, 34.5583766)]",Bungoma; Bungoma County; Kenya,"(0.5695252, 34.5583766)",0.5695252,34.5583766,"Western, Kenya","(-0.115003, 34.851379)",99
156,Juhudi Kilimo,General Financial Inclusion,a1050000002YMi8,Graduating Agriculture Loan,Kenya,Yes,Bungoma,"(0.5666667, 34.5666667)",KEN,2,3900,"Bungoma, Kenya","[(0.5695252, 34.5583766)]",Bungoma; Bungoma County; Kenya,"(0.5695252, 34.5583766)",0.5695252,34.5583766,"Western, Kenya","(-0.115003, 34.851379)",99
156,Juhudi Kilimo,General Financial Inclusion,a1050000007R94k,Education - Kenya,Kenya,No,Bungoma,"(0.5666667, 34.5666667)",KEN,3,750,"Bungoma, Kenya","[(0.5695252, 34.5583766)]",Bungoma; Bungoma County; Kenya,"(0.5695252, 34.5583766)",0.5695252,34.5583766,"Western, Kenya","(-0.115003, 34.851379)",99
156,Juhudi Kilimo,General Financial Inclusion,a1050000002YMi8,Graduating Agriculture Loan,Kenya,Yes,Chuka,"(-0.3333333, 37.65)",KEN,6,11250,"Chuka, Kenya","[(-0.322865, 37.6546274)]",Chuka; Tharaka-Nithi County; Kenya,"(-0.322865, 37.6546274)",-0.322865,37.6546274,"North Eastern, Kenya","(-0.0190061, 37.6480812)",99
156,Juhudi Kilimo,General Financial Inclusion,a1050000007R94k,Education - Kenya,Kenya,No,Chuka,"(-0.3333333, 37.65)",KEN,26,5275,"Chuka, Kenya","[(-0.322865, 37.6546274)]",Chuka; Tharaka-Nithi County; Kenya,"(-0.322865, 37.6546274)",-0.322865,37.6546274,"North Eastern, Kenya","(-0.0190061, 37.6480812)",99
156,Juhudi Kilimo,General Financial Inclusion,a1050000000PNuX,Green,Kenya,Yes,Chuka,"(-0.3333333, 37.65)",KEN,147,12350,"Chuka, Kenya","[(-0.322865, 37.6546274)]",Chuka; Tharaka-Nithi County; Kenya,"(-0.322865, 37.6546274)",-0.322865,37.6546274,"North Eastern, Kenya","(-0.0190061, 37.6480812)",99
156,Juhudi Kilimo,General Financial Inclusion,a1050000002VraP,Agriculture,Kenya,No,Chuka,"(-0.3333333, 37.65)",KEN,648,269850,"Chuka, Kenya","[(-0.322865, 37.6546274)]",Chuka; Tharaka-Nithi County; Kenya,"(-0.322865, 37.6546274)",-0.322865,37.6546274,"North Eastern, Kenya","(-0.0190061, 37.6480812)",99
156,Juhudi Kilimo,General Financial Inclusion,a1050000000PNuX,Green,Kenya,Yes,Eldoret,"(0.5166667, 35.2833333)",KEN,243,19050,"Eldoret, Kenya","[(0.5142774999999999, 35.2697802)]",Eldoret; Uasin Gishu County; Kenya,"(0.5142774999999999, 35.2697802)",0.5142775,35.2697802,"Eastern, Kenya","(0.7137256, 35.517938)",99
156,Juhudi Kilimo,General Financial Inclusion,a1050000002VraP,Agriculture,Kenya,No,Eldoret,"(0.5166667, 35.2833333)",KEN,1117,452425,"Eldoret, Kenya","[(0.5142774999999999, 35.2697802)]",Eldoret; Uasin Gishu County; Kenya,"(0.5142774999999999, 35.2697802)",0.5142775,35.2697802,"Eastern, Kenya","(0.7137256, 35.517938)",99
156,Juhudi Kilimo,General Financial Inclusion,a1050000007R94k,Education - Kenya,Kenya,No,Eldoret,"(0.5166667, 35.2833333)",KEN,15,3250,"Eldoret, Kenya","[(0.5142774999999999, 35.2697802)]",Eldoret; Uasin Gishu County; Kenya,"(0.5142774999999999, 35.2697802)",0.5142775,35.2697802,"Eastern, Kenya","(0.7137256, 35.517938)",99
156,Juhudi Kilimo,General Financial Inclusion,a1050000002VrYA,Higher Education,Kenya,No,Eldoret,"(0.5166667, 35.2833333)",KEN,1,975,"Eldoret, Kenya","[(0.5142774999999999, 35.2697802)]",Eldoret; Uasin Gishu County; Kenya,"(0.5142774999999999, 35.2697802)",0.5142775,35.2697802,"Eastern, Kenya","(0.7137256, 35.517938)",99
156,Juhudi Kilimo,General Financial Inclusion,a1050000002YMi8,Graduating Agriculture Loan,Kenya,Yes,Eldoret,"(0.5166667, 35.2833333)",KEN,6,12675,"Eldoret, Kenya","[(0.5142774999999999, 35.2697802)]",Eldoret; Uasin Gishu County; Kenya,"(0.5142774999999999, 35.2697802)",0.5142775,35.2697802,"Eastern, Kenya","(0.7137256, 35.517938)",99
156,Juhudi Kilimo,General Financial Inclusion,a1050000000PNuX,Green,Kenya,Yes,Kapcherop,,KEN,4,300,"Kapcherop, Kenya","[(1.0357242, 35.3172228)]",Kapcherop Road; Trans-Nzoia County; Kenya,"(1.0357242, 35.3172228)",1.0357242,35.3172228,"Eastern, Kenya","(0.7137256, 35.517938)",99
156,Juhudi Kilimo,General Financial Inclusion,a1050000007R94k,Education - Kenya,Kenya,No,Kapcherop,,KEN,2,375,"Kapcherop, Kenya","[(1.0357242, 35.3172228)]",Kapcherop Road; Trans-Nzoia County; Kenya,"(1.0357242, 35.3172228)",1.0357242,35.3172228,"Eastern, Kenya","(0.7137256, 35.517938)",99
156,Juhudi Kilimo,General Financial Inclusion,a1050000002VraP,Agriculture,Kenya,No,Kapcherop,,KEN,61,20125,"Kapcherop, Kenya","[(1.0357242, 35.3172228)]",Kapcherop Road; Trans-Nzoia County; Kenya,"(1.0357242, 35.3172228)",1.0357242,35.3172228,"Eastern, Kenya","(0.7137256, 35.517938)",99
156,Juhudi Kilimo,General Financial Inclusion,a1050000007R94k,Education - Kenya,Kenya,No,Kapsowar,,KEN,11,2750,"Kapsowar, Kenya","[(0.948567, 35.5084609)]",Kapsowar; Elgeyo-Marakwet County; Kenya,"(0.948567, 35.5084609)",0.948567,35.5084609,"Eastern, Kenya","(0.7137256, 35.517938)",99
156,Juhudi Kilimo,General Financial Inclusion,a1050000002YMi8,Graduating Agriculture Loan,Kenya,Yes,Kapsowar,,KEN,1,1950,"Kapsowar, Kenya","[(0.948567, 35.5084609)]",Kapsowar; Elgeyo-Marakwet County; Kenya,"(0.948567, 35.5084609)",0.948567,35.5084609,"Eastern, Kenya","(0.7137256, 35.517938)",99
156,Juhudi Kilimo,General Financial Inclusion,a1050000000PNuX,Green,Kenya,Yes,Kapsowar,,KEN,91,7125,"Kapsowar, Kenya","[(0.948567, 35.5084609)]",Kapsowar; Elgeyo-Marakwet County; Kenya,"(0.948567, 35.5084609)",0.948567,35.5084609,"Eastern, Kenya","(0.7137256, 35.517938)",99
156,Juhudi Kilimo,General Financial Inclusion,a1050000002VraP,Agriculture,Kenya,No,Kapsowar,,KEN,607,245050,"Kapsowar, Kenya","[(0.948567, 35.5084609)]",Kapsowar; Elgeyo-Marakwet County; Kenya,"(0.948567, 35.5084609)",0.948567,35.5084609,"Eastern, Kenya","(0.7137256, 35.517938)",99
156,Juhudi Kilimo,General Financial Inclusion,a1050000000PNuX,Green,Kenya,Yes,Kenyenya,,KEN,64,5525,"Kenyenya, Kenya","[(-0.8882234999999999, 34.7309402)]",Gucha; Nyanza; Kenya,"(-0.8882234999999999, 34.7309402)",-0.8882235,34.7309402,"Western, Kenya","(-0.115003, 34.851379)",99
156,Juhudi Kilimo,General Financial Inclusion,a1050000007R94k,Education - Kenya,Kenya,No,Kenyenya,,KEN,9,1900,"Kenyenya, Kenya","[(-0.8882234999999999, 34.7309402)]",Gucha; Nyanza; Kenya,"(-0.8882234999999999, 34.7309402)",-0.8882235,34.7309402,"Western, Kenya","(-0.115003, 34.851379)",99
156,Juhudi Kilimo,General Financial Inclusion,a1050000002VraP,Agriculture,Kenya,No,Kenyenya,,KEN,632,230925,"Kenyenya, Kenya","[(-0.8882234999999999, 34.7309402)]",Gucha; Nyanza; Kenya,"(-0.8882234999999999, 34.7309402)",-0.8882235,34.7309402,"Western, Kenya","(-0.115003, 34.851379)",99
156,Juhudi Kilimo,General Financial Inclusion,a1050000000PNuX,Green,Kenya,Yes,Kericho,,KEN,119,9625,"Kericho, Kenya","[(-0.3688967, 35.286286)]",Kericho; Kericho County; Kenya,"(-0.3688967, 35.286286)",-0.3688967,35.286286,"Western, Kenya","(-0.115003, 34.851379)",99
156,Juhudi Kilimo,General Financial Inclusion,a1050000002VraP,Agriculture,Kenya,No,Kericho,,KEN,601,216800,"Kericho, Kenya","[(-0.3688967, 35.286286)]",Kericho; Kericho County; Kenya,"(-0.3688967, 35.286286)",-0.3688967,35.286286,"Western, Kenya","(-0.115003, 34.851379)",99
156,Juhudi Kilimo,General Financial Inclusion,a1050000007R94k,Education - Kenya,Kenya,No,Kericho,,KEN,9,2250,"Kericho, Kenya","[(-0.3688967, 35.286286)]",Kericho; Kericho County; Kenya,"(-0.3688967, 35.286286)",-0.3688967,35.286286,"Western, Kenya","(-0.115003, 34.851379)",99
156,Juhudi Kilimo,General Financial Inclusion,a1050000002VraP,Agriculture,Kenya,No,Kerugoya,,KEN,727,255950,"Kerugoya, Kenya","[(-0.4993281, 37.2784835)]",Kerugoya; Kirinyaga County; Kenya,"(-0.4993281, 37.2784835)",-0.4993281,37.2784835,"North Eastern, Kenya","(-0.0190061, 37.6480812)",99
156,Juhudi Kilimo,General Financial Inclusion,a1050000002YMi8,Graduating Agriculture Loan,Kenya,Yes,Kerugoya,,KEN,6,13775,"Kerugoya, Kenya","[(-0.4993281, 37.2784835)]",Kerugoya; Kirinyaga County; Kenya,"(-0.4993281, 37.2784835)",-0.4993281,37.2784835,"North Eastern, Kenya","(-0.0190061, 37.6480812)",99
156,Juhudi Kilimo,General Financial Inclusion,a1050000007R94k,Education - Kenya,Kenya,No,Kerugoya,,KEN,50,8225,"Kerugoya, Kenya","[(-0.4993281, 37.2784835)]",Kerugoya; Kirinyaga County; Kenya,"(-0.4993281, 37.2784835)",-0.4993281,37.2784835,"North Eastern, Kenya","(-0.0190061, 37.6480812)",99
156,Juhudi Kilimo,General Financial Inclusion,a1050000000PNuX,Green,Kenya,Yes,Kerugoya,,KEN,167,11125,"Kerugoya, Kenya","[(-0.4993281, 37.2784835)]",Kerugoya; Kirinyaga County; Kenya,"(-0.4993281, 37.2784835)",-0.4993281,37.2784835,"North Eastern, Kenya","(-0.0190061, 37.6480812)",99
156,Juhudi Kilimo,General Financial Inclusion,a1050000002VraP,Agriculture,Kenya,No,Kisii,"(-0.6833333, 34.7666667)",KEN,3,1300,"Kisii, Kenya","[(-0.677334, 34.779603)]",Kisii; Kisii County; Kenya,"(-0.677334, 34.779603)",-0.677334,34.779603,"Western, Kenya","(-0.115003, 34.851379)",99
156,Juhudi Kilimo,General Financial Inclusion,a1050000002VraP,Agriculture,Kenya,No,Kitale,"(1.0166667, 35.0)",KEN,1739,688850,"Kitale, Kenya","[(1.019089, 35.0023048)]",Kitale; Trans-Nzoia County; Kenya,"(1.019089, 35.0023048)",1.019089,35.0023048,"Eastern, Kenya","(0.7137256, 35.517938)",99
156,Juhudi Kilimo,General Financial Inclusion,a1050000000PNuX,Green,Kenya,Yes,Kitale,"(1.0166667, 35.0)",KEN,359,25975,"Kitale, Kenya","[(1.019089, 35.0023048)]",Kitale; Trans-Nzoia County; Kenya,"(1.019089, 35.0023048)",1.019089,35.0023048,"Eastern, Kenya","(0.7137256, 35.517938)",99
156,Juhudi Kilimo,General Financial Inclusion,a1050000007R94k,Education - Kenya,Kenya,No,Kitale,"(1.0166667, 35.0)",KEN,25,6100,"Kitale, Kenya","[(1.019089, 35.0023048)]",Kitale; Trans-Nzoia County; Kenya,"(1.019089, 35.0023048)",1.019089,35.0023048,"Eastern, Kenya","(0.7137256, 35.517938)",99
156,Juhudi Kilimo,General Financial Inclusion,a1050000002YMi8,Graduating Agriculture Loan,Kenya,Yes,Kitale,"(1.0166667, 35.0)",KEN,6,12800,"Kitale, Kenya","[(1.019089, 35.0023048)]",Kitale; Trans-Nzoia County; Kenya,"(1.019089, 35.0023048)",1.019089,35.0023048,"Eastern, Kenya","(0.7137256, 35.517938)",99
156,Juhudi Kilimo,General Financial Inclusion,a1050000002VraP,Agriculture,Kenya,No,Lelan,,KEN,12,4400,"Lelan, Kenya","[(1.2833333, 35.45)]",Lelan Forest; West Pokot County; Kenya,"(1.2833333, 35.45)",1.2833333,35.45,"Eastern, Kenya","(0.7137256, 35.517938)",99
156,Juhudi Kilimo,General Financial Inclusion,a1050000000PNuX,Green,Kenya,Yes,Lelan,,KEN,4,350,"Lelan, Kenya","[(1.2833333, 35.45)]",Lelan Forest; West Pokot County; Kenya,"(1.2833333, 35.45)",1.2833333,35.45,"Eastern, Kenya","(0.7137256, 35.517938)",99
156,Juhudi Kilimo,General Financial Inclusion,a1050000002VraP,Agriculture,Kenya,No,Limuru,,KEN,96,42825,"Limuru, Kenya","[(-1.1069305, 36.6431267)]",Limuru Town.; Kiambu County; Kenya,"(-1.1069305, 36.6431267)",-1.1069305,36.6431267,"Nyanza, Kenya","(-1.2849963, 36.8272273)",99
156,Juhudi Kilimo,General Financial Inclusion,a1050000002YMi8,Graduating Agriculture Loan,Kenya,Yes,Limuru,,KEN,1,2000,"Limuru, Kenya","[(-1.1069305, 36.6431267)]",Limuru Town.; Kiambu County; Kenya,"(-1.1069305, 36.6431267)",-1.1069305,36.6431267,"Nyanza, Kenya","(-1.2849963, 36.8272273)",99
156,Juhudi Kilimo,General Financial Inclusion,a1050000000PNuX,Green,Kenya,Yes,Limuru,,KEN,55,3800,"Limuru, Kenya","[(-1.1069305, 36.6431267)]",Limuru Town.; Kiambu County; Kenya,"(-1.1069305, 36.6431267)",-1.1069305,36.6431267,"Nyanza, Kenya","(-1.2849963, 36.8272273)",99
156,Juhudi Kilimo,General Financial Inclusion,a1050000007R94k,Education - Kenya,Kenya,No,Limuru,,KEN,5,775,"Limuru, Kenya","[(-1.1069305, 36.6431267)]",Limuru Town.; Kiambu County; Kenya,"(-1.1069305, 36.6431267)",-1.1069305,36.6431267,"Nyanza, Kenya","(-1.2849963, 36.8272273)",99
156,Juhudi Kilimo,General Financial Inclusion,a1050000000PNuX,Green,Kenya,Yes,Litein,,KEN,21,1975,"Litein, Kenya","[(-0.5826239999999999, 35.1901151)]",Litein; Kericho County; Kenya,"(-0.5826239999999999, 35.1901151)",-0.582624,35.1901151,"Western, Kenya","(-0.115003, 34.851379)",99
156,Juhudi Kilimo,General Financial Inclusion,a1050000007R94k,Education - Kenya,Kenya,No,Litein,,KEN,15,4200,"Litein, Kenya","[(-0.5826239999999999, 35.1901151)]",Litein; Kericho County; Kenya,"(-0.5826239999999999, 35.1901151)",-0.582624,35.1901151,"Western, Kenya","(-0.115003, 34.851379)",99
156,Juhudi Kilimo,General Financial Inclusion,a1050000002YMi8,Graduating Agriculture Loan,Kenya,Yes,Litein,,KEN,1,1775,"Litein, Kenya","[(-0.5826239999999999, 35.1901151)]",Litein; Kericho County; Kenya,"(-0.5826239999999999, 35.1901151)",-0.582624,35.1901151,"Western, Kenya","(-0.115003, 34.851379)",99
156,Juhudi Kilimo,General Financial Inclusion,a1050000002VraP,Agriculture,Kenya,No,Litein,,KEN,226,93750,"Litein, Kenya","[(-0.5826239999999999, 35.1901151)]",Litein; Kericho County; Kenya,"(-0.5826239999999999, 35.1901151)",-0.582624,35.1901151,"Western, Kenya","(-0.115003, 34.851379)",99
156,Juhudi Kilimo,General Financial Inclusion,a1050000002VraP,Agriculture,Kenya,No,Matuu,,KEN,48,13600,"Matuu, Kenya","[(-1.1407002, 37.5481236)]",Matuu; Machakos County; Kenya,"(-1.1407002, 37.5481236)",-1.1407002,37.5481236,"Nyanza, Kenya","(-1.2849963, 36.8272273)",99
156,Juhudi Kilimo,General Financial Inclusion,a1050000000PNuX,Green,Kenya,Yes,Matuu,,KEN,26,1625,"Matuu, Kenya","[(-1.1407002, 37.5481236)]",Matuu; Machakos County; Kenya,"(-1.1407002, 37.5481236)",-1.1407002,37.5481236,"Nyanza, Kenya","(-1.2849963, 36.8272273)",99
156,Juhudi Kilimo,General Financial Inclusion,a1050000007R94k,Education - Kenya,Kenya,No,Matuu,,KEN,1,150,"Matuu, Kenya","[(-1.1407002, 37.5481236)]",Matuu; Machakos County; Kenya,"(-1.1407002, 37.5481236)",-1.1407002,37.5481236,"Nyanza, Kenya","(-1.2849963, 36.8272273)",99
156,Juhudi Kilimo,General Financial Inclusion,a1050000000PNuX,Green,Kenya,Yes,Molo,,KEN,44,3100,"Molo, Kenya","[(-0.2488358, 35.7323709)]",Molo; Nakuru County; Kenya,"(-0.2488358, 35.7323709)",-0.2488358,35.7323709,"Western, Kenya","(-0.115003, 34.851379)",99
156,Juhudi Kilimo,General Financial Inclusion,a1050000007R94k,Education - Kenya,Kenya,No,Molo,,KEN,3,400,"Molo, Kenya","[(-0.2488358, 35.7323709)]",Molo; Nakuru County; Kenya,"(-0.2488358, 35.7323709)",-0.2488358,35.7323709,"Western, Kenya","(-0.115003, 34.851379)",99
156,Juhudi Kilimo,General Financial Inclusion,a1050000002VraP,Agriculture,Kenya,No,Molo,,KEN,254,82550,"Molo, Kenya","[(-0.2488358, 35.7323709)]",Molo; Nakuru County; Kenya,"(-0.2488358, 35.7323709)",-0.2488358,35.7323709,"Western, Kenya","(-0.115003, 34.851379)",99
156,Juhudi Kilimo,General Financial Inclusion,a1050000002VrYA,Higher Education,Kenya,No,Nairobi,"(-1.2833333, 36.8166667)",KEN,2,4500,"Nairobi, Kenya","[(-1.2920659, 36.8219462)]",Nairobi; Nairobi County; Kenya,"(-1.2920659, 36.8219462)",-1.2920659,36.8219462,"Nairobi, Kenya","(-1.2920659, 36.8219462)",99
156,Juhudi Kilimo,General Financial Inclusion,a1050000002VraP,Agriculture,Kenya,No,Nakuru,"(-0.2833333, 36.0666667)",KEN,107,31275,"Nakuru, Kenya","[(-0.3030988, 36.080026)]",Nakuru; Nakuru County; Kenya,"(-0.3030988, 36.080026)",-0.3030988,36.080026,"Eastern, Kenya","(0.7137256, 35.517938)",99
156,Juhudi Kilimo,General Financial Inclusion,a1050000007R94k,Education - Kenya,Kenya,No,Nakuru,"(-0.2833333, 36.0666667)",KEN,1,250,"Nakuru, Kenya","[(-0.3030988, 36.080026)]",Nakuru; Nakuru County; Kenya,"(-0.3030988, 36.080026)",-0.3030988,36.080026,"Eastern, Kenya","(0.7137256, 35.517938)",99
156,Juhudi Kilimo,General Financial Inclusion,a1050000000PNuX,Green,Kenya,Yes,Nakuru,"(-0.2833333, 36.0666667)",KEN,23,1825,"Nakuru, Kenya","[(-0.3030988, 36.080026)]",Nakuru; Nakuru County; Kenya,"(-0.3030988, 36.080026)",-0.3030988,36.080026,"Eastern, Kenya","(0.7137256, 35.517938)",99
156,Juhudi Kilimo,General Financial Inclusion,a1050000002VraP,Agriculture,Kenya,No,Nandi Hills,,KEN,669,279875,"Nandi Hills, Kenya","[(0.1030731, 35.176372)]",Nandi Hills; Nandi County; Kenya,"(0.1030731, 35.176372)",0.1030731,35.176372,"Western, Kenya","(-0.115003, 34.851379)",99
156,Juhudi Kilimo,General Financial Inclusion,a1050000007R94k,Education - Kenya,Kenya,No,Nandi Hills,,KEN,11,2800,"Nandi Hills, Kenya","[(0.1030731, 35.176372)]",Nandi Hills; Nandi County; Kenya,"(0.1030731, 35.176372)",0.1030731,35.176372,"Western, Kenya","(-0.115003, 34.851379)",99
156,Juhudi Kilimo,General Financial Inclusion,a1050000000PNuX,Green,Kenya,Yes,Nandi Hills,,KEN,73,5300,"Nandi Hills, Kenya","[(0.1030731, 35.176372)]",Nandi Hills; Nandi County; Kenya,"(0.1030731, 35.176372)",0.1030731,35.176372,"Western, Kenya","(-0.115003, 34.851379)",99
156,Juhudi Kilimo,General Financial Inclusion,a1050000002YMi8,Graduating Agriculture Loan,Kenya,Yes,Nandi Hills,,KEN,3,5350,"Nandi Hills, Kenya","[(0.1030731, 35.176372)]",Nandi Hills; Nandi County; Kenya,"(0.1030731, 35.176372)",0.1030731,35.176372,"Western, Kenya","(-0.115003, 34.851379)",99
156,Juhudi Kilimo,General Financial Inclusion,a1050000002VraP,Agriculture,Kenya,No,Narok,"(0.5166667, 36.8666667)",KEN,2,700,"Narok, Kenya","[(-1.0875428, 35.87706420000001)]",Narok; Narok County; Kenya,"(-1.0875428, 35.87706420000001)",-1.0875428,35.8770642,"Nairobi, Kenya","(-1.2920659, 36.8219462)",99
156,Juhudi Kilimo,General Financial Inclusion,a1050000002VraP,Agriculture,Kenya,No,Ndaragwa,,KEN,13,6050,"Ndaragwa, Kenya","[(-0.0581284, 36.531071)]",Ndaragwa; Nyandarua County; Kenya,"(-0.0581284, 36.531071)",-0.0581284,36.531071,"North Eastern, Kenya","(-0.0190061, 37.6480812)",99
156,Juhudi Kilimo,General Financial Inclusion,a1050000002YMi8,Graduating Agriculture Loan,Kenya,Yes,Nkubu,,KEN,6,10200,"Nkubu, Kenya","[(-0.0646591, 37.667929)]",Nkubu; Meru County; Kenya,"(-0.0646591, 37.667929)",-0.0646591,37.667929,"North Eastern, Kenya","(-0.0190061, 37.6480812)",99
156,Juhudi Kilimo,General Financial Inclusion,a1050000002VraP,Agriculture,Kenya,No,Nkubu,,KEN,808,322700,"Nkubu, Kenya","[(-0.0646591, 37.667929)]",Nkubu; Meru County; Kenya,"(-0.0646591, 37.667929)",-0.0646591,37.667929,"North Eastern, Kenya","(-0.0190061, 37.6480812)",99
156,Juhudi Kilimo,General Financial Inclusion,a1050000007R94k,Education - Kenya,Kenya,No,Nkubu,,KEN,24,4600,"Nkubu, Kenya","[(-0.0646591, 37.667929)]",Nkubu; Meru County; Kenya,"(-0.0646591, 37.667929)",-0.0646591,37.667929,"North Eastern, Kenya","(-0.0190061, 37.6480812)",99
156,Juhudi Kilimo,General Financial Inclusion,a1050000000PNuX,Green,Kenya,Yes,Nkubu,,KEN,141,11125,"Nkubu, Kenya","[(-0.0646591, 37.667929)]",Nkubu; Meru County; Kenya,"(-0.0646591, 37.667929)",-0.0646591,37.667929,"North Eastern, Kenya","(-0.0190061, 37.6480812)",99
156,Juhudi Kilimo,General Financial Inclusion,a1050000000PNuX,Green,Kenya,Yes,Nyahururu,,KEN,122,9975,"Nyahururu, Kenya","[(0.0351644, 36.3642919)]",Nyahururu; Nyandarua County; Kenya,"(0.0351644, 36.3642919)",0.0351644,36.3642919,"Eastern, Kenya","(0.7137256, 35.517938)",99
156,Juhudi Kilimo,General Financial Inclusion,a1050000002VraP,Agriculture,Kenya,No,Nyahururu,,KEN,326,112675,"Nyahururu, Kenya","[(0.0351644, 36.3642919)]",Nyahururu; Nyandarua County; Kenya,"(0.0351644, 36.3642919)",0.0351644,36.3642919,"Eastern, Kenya","(0.7137256, 35.517938)",99
156,Juhudi Kilimo,General Financial Inclusion,a1050000007R94k,Education - Kenya,Kenya,No,Nyahururu,,KEN,23,6550,"Nyahururu, Kenya","[(0.0351644, 36.3642919)]",Nyahururu; Nyandarua County; Kenya,"(0.0351644, 36.3642919)",0.0351644,36.3642919,"Eastern, Kenya","(0.7137256, 35.517938)",99
156,Juhudi Kilimo,General Financial Inclusion,a1050000002YMi8,Graduating Agriculture Loan,Kenya,Yes,Nyahururu,,KEN,1,1700,"Nyahururu, Kenya","[(0.0351644, 36.3642919)]",Nyahururu; Nyandarua County; Kenya,"(0.0351644, 36.3642919)",0.0351644,36.3642919,"Eastern, Kenya","(0.7137256, 35.517938)",99
156,Juhudi Kilimo,General Financial Inclusion,a1050000002VraP,Agriculture,Kenya,No,Nyamira,,KEN,513,184025,"Nyamira, Kenya","[(-0.5664023, 34.9329747)]",Nyamira County; Kenya,"(-0.5664023, 34.9329747)",-0.5664023,34.9329747,"Western, Kenya","(-0.115003, 34.851379)",99
156,Juhudi Kilimo,General Financial Inclusion,a1050000002YMi8,Graduating Agriculture Loan,Kenya,Yes,Nyamira,,KEN,3,4275,"Nyamira, Kenya","[(-0.5664023, 34.9329747)]",Nyamira County; Kenya,"(-0.5664023, 34.9329747)",-0.5664023,34.9329747,"Western, Kenya","(-0.115003, 34.851379)",99
156,Juhudi Kilimo,General Financial Inclusion,a1050000000PNuX,Green,Kenya,Yes,Nyamira,,KEN,83,5075,"Nyamira, Kenya","[(-0.5664023, 34.9329747)]",Nyamira County; Kenya,"(-0.5664023, 34.9329747)",-0.5664023,34.9329747,"Western, Kenya","(-0.115003, 34.851379)",99
